test_id,iphone_device_id,test_date,client_ip_address,download_kbps,upload_kbps,latency,server_name,server_country,server_country_code,server_latitude,server_longitude,server_sponsor_name,client_country,client_country_code,client_region_name,client_region_code,client_city,client_latitude,client_longitude,miles_between,pre_connection_type,post_connection_type,isp_name,is_isp,network_operator_name,iso_country_code,mcc,mnc,model,version,location_type,gmaps_formatted_address,gmaps_name,gmaps_type,gmaps_country,gmaps_country_code,gmaps_region,gmaps_subregion,gmaps_subsubregion,gmaps_postal_code,client_ipv6_address,client_latitude_start,client_longitude_start,location_type_start
3319393159,164966345,"2019-07-01 00:00:00","123.136.xxx.xxx",1814,807,47,"Petaling Jaya","Malaysia","MY",3.0833,101.6500,"webe Digital Sdn Bhd","Malaysia","MY","Malacca","04","Durian Tunggal",2.309,102.318,70.6535,6,6,"U Mobile Sdn Bhd","1","U Mobile","MY","502","18","iPhone 6 Plus","12.3.1",1,"Durian Tunggal, Malacca, Malaysia","Durian Tunggal","locality","Malaysia","MY","Malacca","Alor Gajah","","76100","","2.30998","102.31807",1
3319393160,169997289,"2019-07-01 00:00:00","196.129.xxx.xxx",8218,4421,46,"Cairo","Egypt","EG",30.0566,31.2262,"Etisalat Misr","Egypt","EG","Cairo Governorate","C","Cairo",30.047,31.235,0.846182,12,12,"Vodafone Egypt","1","Vodafone","EG","602","2","iPhone X","12.3.1",1,"Cairo, Cairo Governorate, Egypt","Cairo","locality","Egypt","EG","Cairo Governorate","","","","","30.04759","31.23576",1
3319393174,103018623,"2019-07-01 00:00:01","188.170.xxx.xxx",26765,4687,56,"Makhachkala","Russia","RU",42.9667,47.5000,"Rostelecom","Russia","RU","Dagestan Republic","DA","Kaspiysk",42.820,47.655,12.8033,12,12,"PJSC MegaFon","1","MegaFon","RU","250","2","iPhone5S","12.3.1",1,"Karabudakhkentsky District, Dagestan Republic, Russia","Karabudakhkentsky District","administrative_area_level_2","Russia","RU","Dagestan Republic","Karabudakhkentsky District","","368301","","42.82099","47.65581",1
3319393177,163701953,"2019-07-01 00:00:01","95.184.xxx.xxx",67314,24160,38,"Riyadh","Saudi Arabia","SA",24.6500,46.7100,"Saudi Telecom Company (STC)","Saudi Arabia","SA","Riyadh Province","01","Az Zulfi",26.323,44.794,166.422,12,12,"SaudiNet","1","STC","SA","420","1","iPhone XS","12.1.4",1,"Az Zulfi Saudi Arabia","Az Zulfi","locality","Saudi Arabia","SA","Riyadh Province","","","15973","","26.32721","44.80063",1
3319393182,168838804,"2019-07-01 00:00:01","42.106.xxx.xxx",9449,3705,27,"Mumbai","India","IN",18.9647,72.8258,"Vodafone India","India","IN","Maharashtra","MH","Mumbai",19.137,72.866,12.2678,12,12,"Vodafone India","1","Vodafone India","IN","404","20","iPhone 8 Plus","12.3.2",1,"Mumbai, Maharashtra, India","Mumbai","locality","India","IN","Maharashtra","Mumbai","","400093","","19.13779","72.86671",1
3319393184,135682638,"2019-07-01 00:00:01","49.237.xxx.xxx",3435,381,45,"Ayutthaya","TH","TH",14.3692,100.5877,"AIS","Thailand","TH","Saraburi","19","Phra Phutthabat",14.799,100.760,31.9511,6,6,"True Internet","1","TRUE-H","TH","520","4","iPhone 7","12.3.1",1,"Nikhom Sang Ton Eng, Mueang Lop Buri District, Lopburi, Thailand","Nikhom Sang Ton Eng","locality","Thailand","TH","Lopburi","Mueang Lop Buri District","","15000","","14.79979","100.76048",1
3319393187,170532660,"2019-07-01 00:00:02","197.229.xxx.xxx",2249,627,33,"Cape Town","South Africa","ZA",-33.9253,18.4239,"MWEB Connect","South Africa","ZA","Western Cape","WC","Cape Town",-33.947,18.593,9.8428,6,6,"Telkom Internet","1","TelkomSA","ZA","655","2","iPhone5S","12.3.1",1,"Cape Town, South Africa","Cape Town","locality","South Africa","ZA","Western Cape","Cape Town","Cape Town","7490","","-33.94710","18.59339",1
3319393200,156983547,"2019-07-01 00:00:02","51.39.xxx.xxx",43653,3095,17,"Dammam","Saudi Arabia","SA",26.2833,50.2000,"Zain KSA","Saudi Arabia","SA","Eastern Province","04","Sayhat",26.475,50.048,16.2869,12,12,"Zain Saudi Arabia","1","Zain KSA","SA","420","4","iPhone 7","12.1",1,"Saihat Saudi Arabia","Saihat","locality","Saudi Arabia","SA","Eastern Province","","","32434","","26.47547","50.04803",1
3319393201,136109793,"2019-07-01 00:00:02","51.252.xxx.xxx",26776,13488,64,"Khamis Mushait","Saudi Arabia","SA",18.3093,42.7662,"Saudi Telecom Company (STC)","Saudi Arabia","SA","Aseer Province","14","Abha",18.210,42.508,18.2493,12,12,"SaudiNet","1","STC","SA","420","1","iPhone 7","12.3.1",1,"Abha Saudi Arabia","Abha","locality","Saudi Arabia","SA","Aseer Province","","","62521","","18.21012","42.50876",1
3319393204,163334847,"2019-07-01 00:00:03","203.144.xxx.xxx",15984,9629,30,"Phnom Penh","Cambodia","KH",11.5500,104.9167,"NeocomISP Limited","Cambodia","KH","Pursat","15","Pursat",12.528,103.920,95.4949,12,12,"Cambodian ISP, Country Wide, Wireless IAP","0","Carrier","KH","456","1","iPhone 6S","12.3.1",1,"Krong Pursat, Cambodia","Krong Pursat","locality","Cambodia","KH","Pursat","","","","","12.52844","103.92080",1
3319393224,160155548,"2019-07-01 00:00:05","49.197.xxx.xxx",148822,8338,23,"Brisbane","Australia","AU",-27.4728,153.0278,"APNIC Pty Ltd","Australia","AU","Queensland","QLD","Mackenzie",-27.540,153.117,7.21343,12,12,"Optus","1","OPTUS","AU","505","2","iPhone 7","12.1.4",1,"Mackenzie QLD 4156, Australia","Mackenzie","locality","Australia","AU","Queensland","Brisbane City","","4156","","","",0
3319393233,170654346,"2019-07-01 00:00:06","182.232.xxx.xxx",112633,48347,21,"Bangkok","Thailand","TH",13.7500,100.4833,"AWN","Thailand","TH","Bangkok","10","Bangkok",13.777,100.575,6.46808,12,12,"AIS Mobile","1","AIS","TH","520","3","iPhone 7 Plus","12.3.1",1,"Bangkok, Thailand","Bangkok","locality","Thailand","TH","","","","10310","","13.77718","100.57542",1
3319393235,170546058,"2019-07-01 00:00:06","203.144.xxx.xxx",3375,19374,23,"Phnom Penh","Cambodia","KH",11.5500,104.9167,"Metfone","Cambodia","KH","Phnom Penh","12","Phnom Penh",11.566,104.897,1.71693,12,12,"Cambodian ISP, Country Wide, Wireless IAP","0","Carrier","KH","456","1","iPhone 8 Plus","12.3.2",1,"Phnom Penh 12000, Cambodia","Phnom Penh","locality","Cambodia","KH","Phnom Penh","","","","","11.56620","104.89751",1
3319393242,80405133,"2019-07-01 00:00:06","175.176.xxx.xxx",50193,13102,129,"Pasig City","Philippines","PH",14.5823,121.0851,"PLDT","Philippines","PH","Metro Manila","00","Pasig",14.561,121.085,1.44192,12,12,"Smart Broadband","1","Smart","PH","515","3","iPhone 6 Plus","12.3.1",1,"Pasig, Metro Manila, Philippines","Pasig","locality","Philippines","PH","Metro Manila","","","","","14.56165","121.08814",1
3319393244,168191370,"2019-07-01 00:00:06","223.184.xxx.xxx",26604,5793,45,"Vadodara","India","IN",22.3000,73.2000,"NEXTECH BROADBAND PVT LTD","India","IN","Gujarat","GJ","Vadodara",22.296,73.197,0.269829,12,12,"BHARTI Airtel","1","AirTel","IN","404","98","iPhone 6S Plus","12.3.1",1,"Vadodara, Gujarat, India","Vadodara","locality","India","IN","Gujarat","Vadodara","","390001","","22.29587","73.19454",1
3319393245,118947659,"2019-07-01 00:00:06","49.197.xxx.xxx",48889,6746,46,"Sydney","Australia","AU",-33.8600,151.2111,"Vocus Communications","Australia","AU","Queensland","QLD","Brisbane",-27.473,153.021,454.691,12,12,"Optus","1","OPTUS","AU","505","2","iPad Air 2","12.3.1",2,"South Brisbane QLD 4101, Australia","South Brisbane","locality","Australia","AU","Queensland","Brisbane City","","4101","","-27.47320","153.02150",2
3319393271,87021630,"2019-07-01 00:00:08","148.252.xxx.xxx",20849,4592,36,"London","Great Britain","GB",51.5171,-0.1062,"Redraw Internet","United Kingdom","GB","London Borough of Richmond upon Thames","RIC","Richmond",51.485,-0.282,7.89735,12,12,"Vodafone","1","vodafone UK","GB","234","15","iPhone SE","12.3.1",1,"Richmond, Greater London TW9, UK","Richmond","locality","United Kingdom","GB","England","Greater London","London Borough of Richmond upon Thames","TW9","","51.48632","-0.28247",1
3319393274,152471148,"2019-07-01 00:00:08","109.41.xxx.xxx",53969,5598,29,"Hamburg","Germany","DE",53.5653,10.0014,"Vodafone Deutschland","Germany","DE","Hamburg","HH","Hamburg",53.561,9.994,0.389999,12,12,"Vodafone GmbH","1","Vodafone.de","DE","262","2","iPhone XS","12.3.1",1,"Hamburg, Germany","Hamburg","locality","Germany","DE","Hamburg","","","20354","","53.56117","9.99490",1
3319393275,157333921,"2019-07-01 00:00:08","109.139.xxx.xxx",160450,58438,22,"Brussels","Belgium","BE",50.8500,4.3500,"Proximus","Belgium","BE","Walloon Region","WAL","Charleroi",50.415,4.452,30.3998,12,12,"Skynet Belgium","1","Proximus","BE","206","1","iPhone XS Max","13.0",1,"Charleroi, Belgium","Charleroi","locality","Belgium","BE","Walloon Region","Hainaut","","6000","","50.41537","4.45281",1
3319393277,170539283,"2019-07-01 00:00:09","31.219.xxx.xxx",277,45108,248,"Dubai","United Arab Emirates","AE",25.2500,55.3000,"ETISALAT-UAE","United Arab Emirates","AE","Dubai","DU","Dubai",25.263,55.308,1.06894,12,12,"Emirates Telecommunications Corporation","1","etisalat","AE","424","2","iPhone XS Max","12.3.1",2,"Dubai - Dubai - United Arab Emirates","Dubai","locality","United Arab Emirates","AE","Dubai","","","","","25.26330","55.30870",2
3319393279,130625448,"2019-07-01 00:00:09","92.97.xxx.xxx",39286,36275,12,"Muscat","Oman","OM",23.6100,58.5400,"AWASR","United Arab Emirates","AE","Dubai","DU","Dubai",25.256,55.424,226.866,2,12,"Emirates Telecommunications Corporation","1","du","AE","424","3","iPhone X","12.3.1",1,"Dubai - Dubai - United Arab Emirates","Dubai","locality","United Arab Emirates","AE","Dubai","","","","","25.25645","55.42410",1
3319393284,146151052,"2019-07-01 00:00:09","42.153.xxx.xxx",1406,4500,23,"Petaling Jaya","Malaysia","MY",3.0833,101.6500,"webe Digital Sdn Bhd","Malaysia","MY","Selangor","10","Petaling Jaya",3.107,101.629,2.16694,12,12,"Webe Digital Sdn. Bhd.","1","Carrier","my","502","153","iPhone 6S","12.2",2,"Petaling Jaya, Selangor, Malaysia","Petaling Jaya","locality","Malaysia","MY","Selangor","Petaling","","46100","","3.10710","101.62960",2
3319393286,133781852,"2019-07-01 00:00:09","46.125.xxx.xxx",13397,2906,43,"Vienna","Austria","AT",48.2082,16.3738,"Onstage Online GmbH","Austria","AT","Vienna","9","Vienna",48.195,16.362,1.04884,6,6,"T-Mobile Austria GmbH","1","Carrier","AT","232","13","iPhone X","12.3.1",1,"Vienna, Austria","Vienna","locality","Austria","AT","Vienna","","","1040","","48.19519","16.36211",1
3319393287,97185143,"2019-07-01 00:00:09","101.9.xxx.xxx",114988,31093,17,"Taipei","Taiwan","TW",25.0333,121.5333,"kbro Co., Ltd.","Taiwan","TW","Taipei City","TPE","Taipei",25.060,121.647,7.38426,12,12,"Taiwan Mobile","1","台湾大哥大","TW","466","97","iPhone 7 Plus","12.4",1,"New Taipei, Banqiao District, New Taipei City, Taiwan","New Taipei","locality","Taiwan","TW","New Taipei City","Luzhou District","","221","","25.06095","121.64712",1
3319393292,103340070,"2019-07-01 00:00:09","31.13.xxx.xxx",5016,8621,51,"Yoshkar-ola","Russia","RU",56.6333,47.8667,"Rostelecom","Russia","RU","Chuvashia Republic","CU","Cheboksary",56.112,47.243,43.2473,12,12,"VimpelCom","1","Beeline","RU","250","99","iPhone 7","12.4",1,"Cheboksary, Chuvashia Republic, Russia","Cheboksary","locality","Russia","RU","Chuvashia Republic","gorod Cheboksary","","428003","","56.11342","47.23925",1
3319393299,129426094,"2019-07-01 00:00:10","110.54.xxx.xxx",1202,567,35,"Imus","Philippines","PH",14.4000,120.9333,"Globe Telecom","Philippines","PH","Metro Manila","00","Las Pinas",14.453,120.975,4.65782,12,12,"Globe Telecom","1","Globe","PH","515","2","iPhone X","12.3.1",1,"Las Pinas, Metro Manila, Philippines","Las Pinas","locality","Philippines","PH","Metro Manila","","","","","14.45324","120.97587",1
3319393306,89404133,"2019-07-01 00:00:11","175.176.xxx.xxx",17907,17736,28,"Mandaluyong","Philippines","PH",14.5800,121.0000,"Globe Telecom","Philippines","PH","Central Luzon","03","Malabon",14.684,120.942,8.16682,12,12,"Smart Broadband","1","Smart","PH","515","3","iPhone 6S","12.3.1",1,"Malabon, Metro Manila, Philippines","Malabon","locality","Philippines","PH","Central Luzon","Bulacan","","","","14.68431","120.94283",1
3319393310,141799136,"2019-07-01 00:00:11","42.111.xxx.xxx",32087,10775,131,"Lucknow","India","IN",26.8500,80.9200,"Vodafone India","India","IN","Chhattisgarh","CT","Korba",22.410,82.761,328.207,12,12,"Vodafone India","1","Vodafone India","IN","404","84","iPhone X","12.3.1",1,"Balco, Chhattisgarh 495684, India","Balco","locality","India","IN","Chhattisgarh","Korba","","495684","","22.41002","82.76180",1
3319393334,161658822,"2019-07-01 00:00:13","175.158.xxx.xxx",112528,6198,67,"Cagayan de Oro City","Philippines","PH",8.4833,124.6500,"PLDT","Philippines","PH","Zamboanga Peninsula","09","Diplahan",7.638,123.199,115.235,1,0,"Smart Broadband","1","Smart","PH","515","3","iPhone 6S","12.3.1",1,"Lapuyan, Zamboanga del Sur, Philippines","Lapuyan","locality","Philippines","PH","Zamboanga Peninsula","Zamboanga del Sur","","","","7.63842","123.19983",1
3319393337,45526175,"2019-07-01 00:00:13","39.13.xxx.xxx",36980,9381,30,"Taipei","Taiwan","TW",25.0333,121.5333,"CNS","Taiwan","TW","Taipei City","TPE","Taipei",25.047,121.566,2.27569,12,12,"FarEasTone","1","遠傳電信","TW","466","1","iPhone 6 Plus","12.4",1,"Taipei, Taipei City, Taiwan","Taipei","locality","Taiwan","TW","Taipei City","","","110","","25.04702","121.56631",1
3319393339,142334304,"2019-07-01 00:00:14","223.24.xxx.xxx",32847,17231,40,"Surat Thani","Thailand","TH",9.1333,99.3317,"DTAC","Thailand","TH","Surat Thani","84","Kanchanadit",9.161,99.493,11.1898,12,12,"True Internet","1","TRUE-H","TH","520","0","iPhone 6","12.3.1",1,"Phaiwat, Kanchanadit District, Surat Thani, Thailand","Phaiwat","locality","Thailand","TH","Surat Thani","Kanchanadit District","","84160","","9.16124","99.49314",1
3319393344,166696537,"2019-07-01 00:00:14","5.41.xxx.xxx",23696,27692,60,"Qassim","Saudi Arabia","SA",25.8275,42.8638,"Saudi Telecom Company (STC)","Saudi Arabia","SA","Hail Province","06","Baq`a' ash Sharqiyah",27.910,42.399,146.885,12,12,"SaudiNet","1","STC","SA","420","1","iPhone XS Max","12.1.4",1,"Baqaa Saudi Arabia","Baqaa","locality","Saudi Arabia","SA","Hail Province","","","53962","","","",0
3319393345,127834800,"2019-07-01 00:00:14","213.147.xxx.xxx",134863,60253,19,"Vienna","Austria","AT",48.2088,16.3726,"ANEXIA Internetdienstleistungs GmbH","Austria","AT","Vienna","9","Vienna",48.281,16.427,5.63193,12,12,"Telekom Austria","1","Carrier","AT","232","11","iPhone X","12.4",1,"Vienna, Austria","Vienna","locality","Austria","AT","Vienna","","","1210","","48.28145","16.42781",1
3319393346,159446103,"2019-07-01 00:00:14","105.235.xxx.xxx",6302,10965,34,"Algiers","Algeria","DZ",36.7667,3.2167,"Ooredoo Algeria","Algeria","DZ","Béjaïa","06","Béjaïa",36.748,5.053,101.773,5,5,"wataniya-telecom","1","ooredoo","DZ","603","3","iPhone XS","12.3.1",1,"Béjaïa, Algeria","Béjaïa","locality","Algeria","DZ","Béjaïa","","","","","36.74829","5.05306",1
3319393347,100588220,"2019-07-01 00:00:14","117.136.xxx.xxx",16603,1801,40,"Nanjing","China","CN",32.0500,118.7667,"China Telecom JiangSu Branch","China","CN","Jiangsu","JS","Nanjing",32.056,118.780,0.939868,12,12,"China Mobile Guangdong","1","中国移动","CN","460","2","iPhone 7","12.4",1,"Nanjing, Jiangsu, China","Nanjing","locality","China","CN","Jiangsu","","","","","32.05643","118.78082",1
3319393350,141096798,"2019-07-01 00:00:14","213.87.xxx.xxx",3702,1360,18,"Moscow","Russian Federation","RU",55.7517,37.6178,"Net By Net Holding LLC","Russia","RU","Moscow","MOW","Moscow",55.752,37.617,0.0730052,12,12,"MTS PJSC","1","Mobile TeleSystems","RU","250","1","iPad Air 2","12.3.1",2,"Moscow, Russia","Moscow","locality","Russia","RU","Moscow","gorod Moskva","","109012","","","",0
3319393354,79173838,"2019-07-01 00:00:14","223.24.xxx.xxx",95680,28637,32,"Pathum Thani","Thailand","TH",14.0208,100.5250,"3BB","Thailand","TH","Nakhon Sawan","60","Nakhon Sawan",15.688,100.107,118.662,12,12,"True Internet","1","TRUE-H","TH","520","0","iPhone 6S","12.3.1",1,"Nakhon Sawan, Mueang Nakhon Sawan District, Nakhon Sawan, Thailand","Nakhon Sawan","locality","Thailand","TH","Nakhon Sawan","Mueang Nakhon Sawan District","","60000","","","",0
3319393359,170536467,"2019-07-01 00:00:15","146.0.xxx.xxx",25454,3479,28,"Luxembourg","Luxembourg","LU",49.6116,6.1319,"POST Luxembourg","Luxembourg","LU","Luxembourg","L","Niederanven",49.638,6.217,4.28111,12,12,"POST Luxembourg","1","POST","LU","270","1","iPhone 6","12.3.1",1,"Niederanven, Luxembourg","Niederanven","locality","Luxembourg","LU","Luxembourg","Luxembourg","","2633","","49.63863","6.21785",1
3319393363,129676651,"2019-07-01 00:00:15","110.54.xxx.xxx",4090,1247,71,"Antipolo","Philippines","PH",14.5992,121.1943,"Globe Telecom","Philippines","PH","Calabarzon","40","Tayabas",14.023,121.588,47.8105,12,12,"Globe Mobile","1","Globe","PH","515","2","iPhone 8 Plus","12.3.2",1,"Tayabas, Quezon, Philippines","Tayabas","locality","Philippines","PH","Calabarzon","Quezon","","4301","","14.02309","121.58844",1
3319393365,154829089,"2019-07-01 00:00:15","106.61.xxx.xxx",1239,25509,390,"Mandalay","Republic of the Union of Myanmar","MM",21.9588,96.0891,"Telenor Myanmar","China","CN","Yunnan","YN","Dali",25.603,100.259,364.954,12,12,"China Telecom YunNan","1","中国电信","CN","460","11","iPhone XS","12.3.1",1,"Dali, Yunnan, China","Dali","locality","China","CN","Yunnan","","","","","25.60365","100.25917",1
3319393370,97903063,"2019-07-01 00:00:16","49.183.xxx.xxx",4014,13442,19,"Burwood East","Australia","AU",-37.8136,144.9631,"Optus","Australia","AU","Victoria","VIC","Craigieburn",-37.575,144.928,16.5768,12,12,"Optus","1","OPTUS","AU","505","2","iPhone 6 Plus","12.3.1",1,"Craigieburn VIC, Australia","Craigieburn","locality","Australia","AU","Victoria","Hume City","","3064","","-37.57555","144.92813",1
3319393371,159135624,"2019-07-01 00:00:16","49.218.xxx.xxx",8348,2343,78,"Hong Kong","Hong Kong","HK",22.2500,114.1667,"i3D.net","Hong Kong","HK","Central And Western District","HCW","Hong Kong",22.277,114.193,2.60242,5,5,"TWN Broadband","1","台湾大哥大","TW","466","97","iPhone4S","9.3.5",1,"Hong Kong, Hong Kong","Hong Kong","locality","Hong Kong","HK","","","","","","","",0
3319393375,145768934,"2019-07-01 00:00:16","223.24.xxx.xxx",5584,6758,27,"Bangkok","Thailand","TH",13.7500,100.4833,"TCC Technology","Thailand","TH","Bangkok","10","Bangkok",13.723,100.566,5.89105,12,12,"True Internet","1","TRUE-H","TH","520","0","iPhone 7 Plus","12.3.1",1,"Bangkok, Thailand","Bangkok","locality","Thailand","TH","","","","10110","","13.72325","100.56656",1
3319393383,117657650,"2019-07-01 00:00:17","223.138.xxx.xxx",14432,9657,20,"Taichung","Taiwan","TW",24.1500,120.6667,"Asia University, Taiwan","Taiwan","TW","Taichung City","TXG","Nantun",24.156,120.644,1.48347,12,12,"Chunghwa Telecom","1","中華電信","TW","466","92","iPhone 7 Plus","12.2",1,"Taichung, North District, Taichung City, Taiwan","Taichung","locality","Taiwan","TW","Taichung City","Wuqi District","草湳里","407","","24.15698","120.64448",1
3319393398,131463023,"2019-07-01 00:00:18","107.77.xxx.xxx",90515,17148,27,"Los Angeles, CA","United States","US",34.0500,-118.2500,"AT&T","United States","US","California","CA","El Segundo",33.918,-118.418,13.268,12,12,"AT&T Wireless","1","AT&T","US","310","410","iPhone 8 Plus","12.3.2",1,"El Segundo, CA, USA","El Segundo","locality","United States","US","California","Los Angeles County","","90245","","33.91837","-118.41827",1
3319393403,170031056,"2019-07-01 00:00:19","223.39.xxx.xxx",97617,14623,38,"Seoul","South Korea","KR",37.5833,127.0000,"kdatacenter.com","South Korea","KR","Gyeonggi-do","41","Yeoju",37.399,127.714,41.2118,12,12,"SK Telecom","1","SK Telecom","KR","450","5","iPhone 7 Plus","12.3.1",1,"Yangpyeong-gun, Gyeonggi-do, South Korea","Yangpyeong-gun","locality","South Korea","KR","Gyeonggi-do","","","476-884","","37.40084","127.72474",1
3319393414,168076883,"2019-07-01 00:00:19","113.210.xxx.xxx",9079,1899,81,"Kuching","Malaysia","MY",1.5600,110.3450,"DANAWA Resources Sdn. Bhd.","Malaysia","MY","Sarawak","13","Bintulu",3.180,113.042,217.488,6,6,"Maxis Communications","1","Maxis","MY","502","12","iPhone 6S","12.3.1",1,"Bintulu, Sarawak, Malaysia","Bintulu","locality","Malaysia","MY","Sarawak","Bahagian Bintulu","Bintulu","97000","","3.18977","113.05907",1
3319393421,95405219,"2019-07-01 00:00:20","223.138.xxx.xxx",32009,1011,25,"Tainan","Taiwan","TW",22.9833,120.1833,"Chunghwa Mobile","Taiwan","TW","Kaohsiung City","KHH","Dexing",22.888,120.514,22.1192,12,12,"Chunghwa Telecom","1","中華電信","TW","466","92","iPhone 7","12.1.4",1,"Kaohsiung City, Taiwan","Kaohsiung City","administrative_area_level_1","Taiwan","TW","Kaohsiung City","","","843","","22.88829","120.51485",1
3319393438,169955437,"2019-07-01 00:00:22","80.89.xxx.xxx",28933,12264,15,"Riga","Latvia","LV",56.9496,24.1040,"Telenet, sia","Latvia","LV","Rīgas pilsēta","RIX","Riga",56.975,24.163,2.85614,12,12,"Latvijas Mobilais Telefons SIA","1","LMT","LV","247","1","iPhone 7 Plus","12.4",1,"Riga, Latvia","Riga","locality","Latvia","LV","Rīgas pilsēta","Rīgas pilsēta","","LV-1039","","56.97505","24.16364",1
3319393443,158582314,"2019-07-01 00:00:22","5.90.xxx.xxx",16497,5764,26,"Lugano","Switzerland","CH",46.0000,8.9500,"InternetONE SA","Italy","IT","Lombardy","25","Binago",45.784,8.918,14.9661,12,12,"Vodafone Italia","1","Vodafone IT","IT","222","10","iPhone 7","12.4",1,"22070 Binago CO, Italy","Binago","locality","Italy","IT","Lombardy","Province of Como","Binago","22070","","45.78595","8.90866",1
3319393461,164797939,"2019-07-01 00:00:24","103.226.xxx.xxx",1011,2832,52,"Tokyo","JP","JP",35.6833,139.6833,"x86net","Japan","JP","Tokyo","13","Tokyo",35.734,139.707,3.8304,12,12,"WirelessGate","0","ドコモ","JP","440","10","iPad Air 2","12.4",1,"Toshima, Tokyo, Japan","Toshima","locality","Japan","JP","Tokyo","","","171-0014","","35.73494","139.70793",1
3319393462,161142770,"2019-07-01 00:00:24","27.247.xxx.xxx",215876,52058,17,"New Taipei","Taiwan","TW",25.0111,121.4458,"KGEX ISP","Taiwan","TW","Taipei City","TPE","Taipei",24.998,121.456,1.1136,12,12,"FarEasTone","1","遠傳電信","TW","466","1","iPhone XS","12.3.1",1,"New Taipei, Banqiao District, New Taipei City, Taiwan","New Taipei","locality","Taiwan","TW","New Taipei City","Luzhou District","","220","","24.99819","121.45641",1
3319393469,166009738,"2019-07-01 00:00:25","5.144.xxx.xxx",53602,3635,34,"Athens","Greece","GR",37.9778,23.7278,"LANCOM LTD","Greece","GR","Attica","I","Athens",37.984,23.735,0.602687,12,12,"Cosmote Mobile Telecommunications S.A.","1","COSMOTE","GR","202","1","iPhone XR","12.3.1",2,"Athens, Greece","Athens","locality","Greece","GR","Attica","Attica","Kentrikos Tomeas Athinon, Athens, Athina","106 81","","37.98420","23.73530",2
3319393471,161949274,"2019-07-01 00:00:25","223.24.xxx.xxx",57086,5936,23,"Bangkok","Thailand","TH",13.7500,100.4833,"Internet Thailand PCL","Thailand","TH","Bangkok","10","Bangkok",13.708,100.455,3.4264,12,12,"True Internet","1","TRUE-H","TH","520","0","iPhone 7 Plus","12.1.2",2,"Bangkok, Thailand","Bangkok","locality","Thailand","TH","","","","10150","","","",0
3319393472,151936071,"2019-07-01 00:00:25","194.230.xxx.xxx",137496,31247,19,"Zurich","Switzerland","CH",47.3769,8.5417,"Monzoon Networks AG","Switzerland","CH","Zurich","ZH","Zurich",47.383,8.572,1.5288,12,12,"Sunrise Communications AG","1","Sunrise","CH","228","2","iPhone 8","12.4",1,"Zürich, Switzerland","Zürich","locality","Switzerland","CH","Zurich","Zürich District","","8044","","47.38335","8.57292",1
3319393473,162552536,"2019-07-01 00:00:25","5.110.xxx.xxx",79167,44959,27,"Jeddah","Saudi Arabia","SA",21.5000,39.1833,"Mobily","Saudi Arabia","SA","Makkah Province","02","Jeddah",21.525,39.168,1.9888,12,12,"Mobily","1","Mobily","SA","420","3","iPhone 8","12.3.1",1,"Jeddah Saudi Arabia","Jeddah","locality","Saudi Arabia","SA","Makkah Province","","","23323","","21.52544","39.16890",1
3319393483,170654292,"2019-07-01 00:00:25","157.39.xxx.xxx",1323,14379,47,"Chandigarh","India","IN",30.7333,76.7794,"Hardwork Cable and Internet services pvt ltd.","India","IN","Chandigarh","CH","Chandigarh",30.746,76.749,1.97812,1,0,"Jio","1","Unknown","","0","0","iPad Mini Retina","12.0",1,"Chandigarh, Chandigarh 160017, India","Chandigarh","locality","India","IN","Chandigarh","","","160036","","30.74656","76.74992",1
3319393487,85829500,"2019-07-01 00:00:26","223.24.xxx.xxx",5984,11749,23,"Samut Prakarn","Thailand","TH",13.5991,100.5998,"AIS","Thailand","TH","Rayong","21","Ban Huai Pong",12.701,101.120,71.2924,12,12,"True Internet","1","TRUE-H","TH","520","0","iPhone 6","12.3.1",1,"Huai Pong, Mueang Rayong District, Rayong, Thailand","Huai Pong","locality","Thailand","TH","Rayong","Mueang Rayong District","","21150","","12.70160","101.12020",1
3319393491,170654373,"2019-07-01 00:00:26","1.128.xxx.xxx",259606,34668,23,"Brisbane","Australia","AU",-27.4728,153.0278,"GComm Pty Ltd","Australia","AU","Queensland","QLD","Toowoomba",-27.560,151.952,66.2624,12,12,"Telstra Internet","1","Telstra","AU","505","1","iPhone XS","12.3.1",1,"Toowoomba QLD 4350, Australia","Toowoomba","locality","Australia","AU","Queensland","Toowoomba Regional","","4350","","-27.56075","151.95224",1
3319393501,154515280,"2019-07-01 00:00:27","172.58.xxx.xxx",82400,56994,19,"Bayamon","Puerto Rico","PR",18.3833,-66.1500,"T-Mobile","Puerto Rico","PR","Unknown","??","Fajardo",18.361,-65.629,34.1872,12,12,"T-MOBILE USA","1","T-Mobile","US","310","260","iPhone X","12.3.1",1,"Cabezas, Fajardo, Puerto Rico","Cabezas","administrative_area_level_2","Puerto Rico","PR","Fajardo","Cabezas","","00738","2607:fb90:76b3:8cex:xxxx:xxxx:xxxx:xxxx","18.36182","-65.62970",1
3319393506,74723602,"2019-07-01 00:00:27","82.132.xxx.xxx",16076,8452,32,"Bristol","Great Britain","GB",51.4500,-2.5833,"Hub Network Services Ltd","United Kingdom","GB","Devon","DEV","Devon",50.307,-3.868,96.9186,12,12,"Telefonica O2 UK","1","O2","GB","234","10","iPhone5S","12.3.1",1,"Kingsbridge TQ7, UK","Bigbury","administrative_area_level_4","United Kingdom","GB","England","Devon","South Hams District, Bigbury","TQ7","","50.30744","-3.86885",1
3319393507,84107369,"2019-07-01 00:00:27","223.140.xxx.xxx",37051,6082,13,"Taipei","Taiwan","TW",25.0333,121.5333,"Chunghwa Mobile","Taiwan","TW","Taipei City","TPE","Taipei",25.087,121.519,3.84734,12,12,"Chunghwa Telecom","1","中華電信","TW","466","92","iPhone 6","12.3.1",1,"Taipei, Taipei City, Taiwan","Taipei","locality","Taiwan","TW","Taipei City","","","111","","25.08752","121.51961",1
3319393509,170458943,"2019-07-01 00:00:27","213.205.xxx.xxx",37623,13180,38,"London","Great Britain","GB",51.5171,-0.1062,"Freethought Internet","United Kingdom","GB","Surrey","SRY","Bisley",51.323,-0.642,26.7289,12,12,"EE Mobile","1","EE","GB","234","30","iPhone XS Max","13.0",1,"Woking, Surrey GU24, UK","Bisley","locality","United Kingdom","GB","England","Surrey","Surrey Heath District, Bisley","GU24","2a01:4c8:2e:59ax:xxxx:xxxx:xxxx:xxxx","51.32335","-0.64234",1
3319393511,169738268,"2019-07-01 00:00:27","107.242.xxx.xxx",73962,18073,68,"Wichita, KS","United States","US",37.6922,-97.3372,"Kansas Research and Education Network","United States","US","Unknown","??","Unknown",37.751,-97.822,26.8351,12,12,"AT&T Wireless","1","TFW","US","310","410","iPhone 6S","12.3.1",2,"United States","United States","country","United States","US","","","","","","37.75100","-97.82200",2
3319393513,132400960,"2019-07-01 00:00:27","223.24.xxx.xxx",3852,12096,26,"Nonthaburi","Thailand","TH",13.8621,100.5144,"3BB","Thailand","TH","Prachin Buri","25","Prachin Buri",13.982,101.388,59.304,12,12,"True Internet","1","TRUE-H","TH","520","0","iPhone 7 Plus","12.3.1",1,"Bang Decha, Mueang Prachin Buri District, Prachin Buri, Thailand","Bang Decha","locality","Thailand","TH","Prachin Buri","Mueang Prachin Buri District","","25140","","13.98727","101.38886",1
3319393515,166591761,"2019-07-01 00:00:27","174.218.xxx.xxx",23224,1299,58,"Walterboro, SC","United States","US",32.9052,-80.6668,"Palmetto Rural Telephone Cooperative","United States","US","Georgia","GA","Lyons",32.184,-82.303,107.66,12,12,"VERIZON WIRELESS","1","Verizon","US","311","480","iPhone 7 Plus","12.3.1",1,"Toombs County, GA, USA","Toombs County","administrative_area_level_2","United States","US","Georgia","Toombs County","","30436","","32.18356","-82.30553",1
3319393516,90563378,"2019-07-01 00:00:27","110.54.xxx.xxx",13822,7362,60,"Imus","Philippines","PH",14.4000,120.9333,"Globe Telecom","Philippines","PH","Metro Manila","00","Makati City",14.561,121.003,12.1001,12,12,"Globe Mobile","1","Globe","PH","515","2","iPhone 6S","12.3.1",1,"Makati, Metro Manila, Philippines","Makati","locality","Philippines","PH","Metro Manila","","","","","14.56134","121.00312",1
3319393517,161051018,"2019-07-01 00:00:27","114.4.xxx.xxx",57138,28467,24,"Jakarta","Indonesia","ID",-6.1745,106.8227,"DTP","Indonesia","ID","Special Capital Region of Jakarta","JK","Jakarta Pusat",-6.177,106.876,3.69716,12,12,"PT Indosat Tbk.","1","Carrier","ID","510","1","iPhone 7","12.3.1",1,"Central Jakarta, Central Jakarta City, Special Capital Region of Jakarta, Indonesia","Central Jakarta","locality","Indonesia","ID","Special Capital Region of Jakarta","Central Jakarta City","","10510","","-6.17758","106.87637",1
3319393519,147785402,"2019-07-01 00:00:27","223.140.xxx.xxx",17365,1413,108,"Taipei","Taiwan","TW",25.0333,121.5333,"CNS","Taiwan","TW","Taipei City","TPE","Taipei",25.047,121.531,1.00736,12,12,"Chunghwa Telecom","1","中華電信","TW","466","92","iPhone 7 Plus","12.3.1",2,"Taipei, Taipei City, Taiwan","Taipei","locality","Taiwan","TW","Taipei City","","","104","","25.04780","121.53180",2
3319393521,156148801,"2019-07-01 00:00:27","213.87.xxx.xxx",30924,17573,18,"Moscow","Russian Federation","RU",55.7517,37.6178,"MGTS","Russia","RU","Moscow","MOW","Moscow",55.752,37.617,0.0730052,12,12,"MTS PJSC","1","Mobile TeleSystems","RU","250","1","iPhone XS Max","12.3.1",2,"Moscow, Russia","Moscow","locality","Russia","RU","Moscow","gorod Moskva","","109012","","","",0
3319393531,151029931,"2019-07-01 00:00:29","217.66.xxx.xxx",6541,2314,36,"Saint Petersburg","Russian Federation","RU",59.9333,30.3333,"PJSC MegaFon","Russia","RU","St Petersburg","SPE","St Petersburg",59.996,30.259,5.06293,12,12,"MTS PJSC","1","Mobile TeleSystems","RU","250","1","iPhone 8 Plus","12.3.2",1,"St Petersburg, Russia","Saint Petersburg","locality","Russia","RU","Saint Petersburg","gorod Sankt-Peterburg","","197374","","59.99653","30.25963",1
3319393533,89311958,"2019-07-01 00:00:29","223.225.xxx.xxx",2662,192,66,"Gurgaon","India","IN",28.4615,77.0178,"Touch Net India Pvt. Ltd","India","IN","Haryana","HR","Gurgaon",28.496,77.067,3.88741,12,12,"BHARTI Airtel","1","AirTel","IN","404","10","iPhone5S","10.2.1",1,"Gurgaon, Haryana 122001, India","Gurgaon","locality","India","IN","Haryana","Gurgaon","","122008","","","",0
3319393537,137498828,"2019-07-01 00:00:29","101.9.xxx.xxx",169403,50726,18,"Taipei","Taiwan","TW",25.0333,121.5333,"Chief Telecom","Taiwan","TW","Taipei City","TPE","Taipei",25.080,121.569,3.93811,12,12,"Taiwan Mobile","1","台湾大哥大","TW","466","97","iPhone X","12.3.1",1,"Taipei, Taipei City, Taiwan","Taipei","locality","Taiwan","TW","Taipei City","","","114","","25.08012","121.56906",1
3319393540,162643408,"2019-07-01 00:00:29","124.160.xxx.xxx",109126,37033,21,"Hangzhou","China","CN",30.2500,120.1667,"China Telecom ZheJiang Branch","China","CN","Zhejiang","ZJ","Hangzhou",30.407,120.302,13.5568,12,12,"China Unicom Zhejiang","1","中国联通","CN","460","1","iPhone 6","11.3.1",1,"Hangzhou, Zhejiang, China","Hangzhou","locality","China","CN","Zhejiang","","","314422","","","",0
3319393591,151575848,"2019-07-01 00:00:34","188.247.xxx.xxx",20886,31362,27,"Amman","Jordan","JO",31.9500,35.9333,"ZAIN JO","Jordan","JO","Amman","AM","Amman",31.999,35.873,4.90353,12,12,"Zain Jordan","1","Zain JO","JO","416","1","iPhone 7","12.3.1",1,"Amman, Jordan","Amman","locality","Jordan","JO","Amman","","","","","31.99909","35.87301",1
3319393595,164813529,"2019-07-01 00:00:34","188.238.xxx.xxx",28333,7222,25,"Helsinki","Finland","FI",60.1698,24.9383,"DNA Welho Oy","Finland","FI","Uusimaa","18","Hyvinkaeae",60.621,24.829,31.4587,5,5,"Telia Finland Oyj","1","Telia FI","FI","244","91","iPhone 7","12.4",1,"Hyvinkää, Finland","Hyvinkää","locality","Finland","FI","Uusimaa","Hyvinkää","","05830","","60.62141","24.82944",1
3319393599,141287404,"2019-07-01 00:00:35","106.73.xxx.xxx",25146,3975,35,"Tokyo","Japan","JP",35.6833,139.6833,"i3D.net","Japan","JP","Chiba Prefecture","12","Funabashi",35.709,139.963,15.8506,12,12,"au one net","1","ドコモ","JP","440","10","iPhone SE","11.2.2",2,"Funabashi, Chiba Prefecture, Japan","Funabashi","locality","Japan","JP","Chiba Prefecture","","","273-0031","","35.51420","139.65310",2
3319393610,109026631,"2019-07-01 00:00:35","89.205.xxx.xxx",21490,33592,75,"Ljubljana","Slovenia","SI",46.0500,14.5000,"T-2 d.o.o.","Austria","AT","Styria","6","Graz",47.054,15.447,82.8422,12,12,"T-mobile Netherlands bv.","1","T-Mobile NL","NL","204","16","iPhone 7","12.3.1",1,"Graz, Austria","Graz","locality","Austria","AT","Styria","Graz","","8010","","47.05482","15.44772",1
3319393611,170654379,"2019-07-01 00:00:35","114.124.xxx.xxx",8577,3755,30,"Jakarta","Indonesia","ID",-6.1745,106.8227,"MYMATRIX","Indonesia","ID","West Java","JB","Cijulang",-6.566,106.846,27.1601,12,12,"Telkomsel","1","Telkomsel","ID","510","10","iPhone 6","12.3.1",1,"Cipambuan, Babakan Madang, Bogor, West Java, Indonesia","Cipambuan","administrative_area_level_4","Indonesia","ID","West Java","Bogor","Babakan Madang, Cipambuan","16810","","-6.56647","106.84604",1
3319393619,141307196,"2019-07-01 00:00:36","5.90.xxx.xxx",35196,14765,29,"Florence","Italy","IT",43.7696,11.2558,"Arcolink by Next.it S.r.l.","Italy","IT","Tuscany","52","Florence",43.801,11.247,2.2635,12,12,"Vodafone Italia","1","Vodafone IT","IT","222","10","iPhone 6S","12.3.1",1,"Florence, Italy","Florence","locality","Italy","IT","Tuscany","Metropolitan City of Florence","Florence","50139","","43.80182","11.24787",1
3319393622,157183653,"2019-07-01 00:00:36","172.58.xxx.xxx",65374,30558,63,"Salt Lake City, UT","United States","US",40.7500,-111.8833,"UTOPIA","United States","US","Utah","UT","Ogden",41.265,-111.995,36.1344,12,12,"T-MOBILE USA","1","T-Mobile","US","310","260","iPhone X","12.3.1",1,"Ogden, UT, USA","Ogden","locality","United States","US","Utah","Weber County","","84404","","41.26554","-111.99509",1
3319393628,167881403,"2019-07-01 00:00:37","49.219.xxx.xxx",56434,4678,23,"Taipei","Taiwan","TW",25.0333,121.5333,"Chunghwa Mobile","Taiwan","TW","Taipei City","TPE","Taipei",25.047,121.531,1.00736,12,12,"TWN Broadband","1","台湾大哥大","TW","466","97","iPhone 8 Plus","12.3.2",2,"Taipei, Taipei City, Taiwan","Taipei","locality","Taiwan","TW","Taipei City","","","104","","25.04780","121.53180",2
3319393630,155502037,"2019-07-01 00:00:37","151.34.xxx.xxx",14956,16272,41,"Arezzo","Italy","IT",43.4667,11.8833,"Coolnetwork","Italy","IT","Unknown","??","Unknown",43.147,12.109,24.8221,12,12,"Wind Tre","1","I WIND","IT","222","88","iPhone XS Max","12.4",2,"Italy","Italy","country","Italy","IT","","","","","","43.14790","12.10970",2
3319393637,149769423,"2019-07-01 00:00:38","51.39.xxx.xxx",72052,14188,27,"Riyadh","Saudi Arabia","SA",24.6500,46.7100,"Zain KSA","Saudi Arabia","SA","Riyadh Province","01","Riyadh",24.653,46.715,0.415153,12,12,"Zain Saudi Arabia","1","Zain KSA","SA","420","4","iPhone 7 Plus","12.3.1",2,"Riyadh Saudi Arabia","Riyadh","locality","Saudi Arabia","SA","Riyadh Province","","","12631","","24.65370","46.71520",2
3319393646,160121981,"2019-07-01 00:00:39","37.165.xxx.xxx",164463,9208,16,"Paris","France","FR",48.8742,2.3470,"Netsplit","France","FR","Île-de-France","IDF","Montreuil",48.861,2.450,4.78994,12,12,"Free Mobile SAS","1","Free","FR","208","15","iPhone XS","13.0",2,"Montreuil, France","Montreuil","locality","France","FR","Île-de-France","Seine-Saint-Denis","","93100","","48.86190","2.45060",2
3319393651,101205654,"2019-07-01 00:00:39","107.77.xxx.xxx",35506,2656,23,"Walnut Creek, CA","United States","US",37.9101,-122.0652,"AT&T Wireless","United States","US","California","CA","Belmont",37.514,-122.304,30.2982,12,12,"AT&T Wireless","1","AT&T","US","310","410","iPhone SE","12.3.1",1,"Belmont, CA, USA","Belmont","locality","United States","US","California","San Mateo County","","94002","","37.51493","-122.30406",1
3319393652,160167289,"2019-07-01 00:00:39","223.188.xxx.xxx",912,3334,88,"Gurgaon","India","IN",28.4615,77.0178,"Tripleplay Broadband Pvt Ltd","India","IN","Haryana","HR","Kasan",28.419,76.884,8.60983,12,12,"BHARTI Airtel","1","AirTel","IN","404","70","iPhone X","12.3.1",1,"Patli Hajipur, Haryana, India","Patli Hajipur","locality","India","IN","Haryana","Gurgaon","","122505","","28.41978","76.88443",1
3319393669,169226163,"2019-07-01 00:00:40","157.48.xxx.xxx",1534,1821,100,"Hyderabad","India","IN",17.3700,78.4800,"Excitel","India","IN","Telangana","TG","Ramagundam",18.752,79.510,117.197,12,12,"Jio","1","Jio","IN","405","854","iPhone 7","12.3.1",1,"Ramagundam, Telangana 505208, India","Ramagundam","locality","India","IN","Telangana","Karimnagar","","505211","","18.75222","79.51071",1
3319393674,91585353,"2019-07-01 00:00:41","5.90.xxx.xxx",38694,19914,50,"Rome","Italy","IT",41.9000,12.5000,"Vodafone Italy","Italy","IT","Sicily","82","Unknown",38.119,13.367,265.516,12,12,"Vodafone Italia","1","Vodafone IT","IT","222","10","iPhone 6S","12.3.1",2,"Italy","Italy","country","Italy","IT","","","","","","38.11930","13.36750",2
3319393679,128900636,"2019-07-01 00:00:41","51.253.xxx.xxx",102610,44723,27,"Khobar","Saudi Arabia","SA",26.2172,50.1971,"Saudi Telecom Company (STC)","Bahrain","BH","Unknown","??","Al Budayyi`",26.185,50.324,8.18183,12,12,"SaudiNet","1","STC","SA","420","1","iPhone 8 Plus","11.3",1,"Saudi Arabia","Saudi Arabia","country","Saudi Arabia","SA","","","","","","26.18537","50.32407",1
3319393682,155377910,"2019-07-01 00:00:41","151.38.xxx.xxx",48602,3283,33,"Milan","Italy","IT",45.4640,9.1916,"Wind Tre","Italy","IT","Lombardy","25","Milan",45.470,9.188,0.481499,12,12,"Wind Tre","1","I WIND","IT","222","88","iPhone 6","12.4",2,"Milan, Italy","Milan","locality","Italy","IT","Lombardy","Metropolitan City of Milan","Milan","20121","","45.47070","9.18890",2
3319393698,101606746,"2019-07-01 00:00:43","85.26.xxx.xxx",7375,3572,41,"Khabarovsk","Russian Federation","RU",48.4770,135.0941,"Rostelecom","Russia","RU","Primorsky Krai","PRI","Gornorechenskiy",44.155,135.644,300.094,6,6,"PJSC MegaFon","1","MegaFon","RU","250","2","iPhone 6","12.3.1",1,"Kavalerovsky District, Primorsky Krai, Russia","Kavalerovsky District","administrative_area_level_2","Russia","RU","Primorsky Krai","Kavalerovsky District","","692428","","44.15519","135.64466",1
3319393701,134264141,"2019-07-01 00:00:43","62.72.xxx.xxx",150331,15642,39,"Arnhem","Netherlands","NL",51.9833,5.9167,"Breedband Arnhem","Netherlands","NL","Gelderland","GE","Arnhem",51.983,5.897,0.836731,12,12,"Vodafone Libertel N.V","1","vf nl","NL","204","4","iPhone X","12.3.1",1,"6812 Arnhem, Netherlands","Arnhem","locality","Netherlands","NL","Gelderland","Arnhem","","6812","","51.98249","5.89965",1
3319393705,167817863,"2019-07-01 00:00:43","223.184.xxx.xxx",4179,2883,95,"Ahmedabad","India","IN",23.0300,72.5800,"Bharti Airtel Ltd.","India","IN","Madhya Pradesh","MP","Indore",22.756,75.881,211.21,12,12,"BHARTI Airtel","1","AirTel","IN","404","93","iPhone XR","12.3.1",1,"Indore, Madhya Pradesh 452001, India","Indore","locality","India","IN","Madhya Pradesh","Indore","","452010","","22.75640","75.88130",1
3319393723,169269000,"2019-07-01 00:00:45","171.253.xxx.xxx",15897,6454,19,"Ho Chi Minh","Vietnam","VN",10.7500,106.6667,"CMC Telecom","Vietnam","VN","Ho Chi Minh","SG","Ho Chi Minh City",10.814,106.643,4.70557,12,12,"Viettel Group","1","Viettel","VN","452","4","iPhone 6S","12.2",2,"Ho Chi Minh City, Ho Chi Minh 70000, Vietnam","Ho Chi Minh City","locality","Vietnam","VN","Ho Chi Minh","","","","","10.81420","106.64380",2
3319393737,129694326,"2019-07-01 00:00:46","106.198.xxx.xxx",26301,2211,34,"Chennai","India","IN",13.0827,80.2707,"Bharti Airtel Ltd","India","IN","Tamil Nadu","TN","Mambakkam",12.840,80.154,18.4816,12,12,"BHARTI Airtel","1","AirTel","IN","404","94","iPhone 7","12.3.1",1,"Kanchipuram, Tamil Nadu, India","Kanchipuram","administrative_area_level_2","India","IN","Tamil Nadu","Kanchipuram","","600048","","","",0
3319393739,156999440,"2019-07-01 00:00:46","109.253.xxx.xxx",8483,24163,27,"Ashkelon","Israel","IL",31.6667,34.5667,"Pelephone Communications","Israel","IL","South District","D","Lehavim",31.376,34.792,24.077,12,12,"013 NetVision","1","Cellcom","IL","425","2","iPhone 8 Plus","12.3.2",1,"Benei Shim'on, Israel","Benei Shim'on","administrative_area_level_4","Israel","IL","South District","Benei Shim'on","","","","31.38436","34.78524",1
3319393750,168239833,"2019-07-01 00:00:47","171.255.xxx.xxx",29695,1556,44,"Ho Chi Minh City","Vietnam","VN",10.7500,106.6667,"Supernet","Vietnam","VN","Ba Ria - Vung Tau","43","Vũng Tàu",10.348,107.099,40.4819,12,12,"Viettel Group","1","Viettel","VN","452","4","iPhone 7 Plus","12.2",1,"Phường Thắng Tam, Thành phố Vũng Tầu, Bà Rịa - Vũng Tàu, Vietnam","Phường Thắng Tam","administrative_area_level_3","Vietnam","VN","Ba Ria - Vung Tau","Thành phố Vũng Tầu","Phường Thắng Tam","","","10.34855","107.09972",1
3319393752,165184443,"2019-07-01 00:00:47","123.136.xxx.xxx",39084,855,26,"Kuala Lumpur","Malaysia","MY",3.1357,101.6880,"U Mobile","Malaysia","MY","Selangor","10","Puchong Batu Dua Belas",3.073,101.622,6.27763,6,6,"U Mobile Sdn Bhd","1","U Mobile","MY","502","18","iPhone 7 Plus","12.3.1",2,"Puchong, Selangor, Malaysia","Puchong","locality","Malaysia","MY","Selangor","","","47100","","3.07320","101.62210",2
3319393767,163600922,"2019-07-01 00:00:48","46.96.xxx.xxx",60511,8466,42,"Kiev","Ukraine","UA",50.4500,30.5233,"UnderNet","Ukraine","UA","Unknown","??","Unknown",50.450,30.523,0,12,12,"lifecell","1","lifecell","UA","255","6","iPhone 6S","12.3.1",2,"Ukraine","Ukraine","country","Ukraine","UA","","","","","","50.45000","30.52330",2
3319393768,84284269,"2019-07-01 00:00:48","123.136.xxx.xxx",17980,25891,22,"Kuala Lumpur","Malaysia","MY",3.1357,101.6880,"Yes 4G","Malaysia","MY","Selangor","10","Petaling Jaya",3.162,101.593,6.8048,12,12,"U Mobile Sdn Bhd","1","U Mobile","MY","502","18","iPhone 6S Plus","9.2.1",1,"Petaling Jaya, Selangor, Malaysia","Petaling Jaya","locality","Malaysia","MY","Selangor","Petaling","","47810","","","",0
3319393771,170654386,"2019-07-01 00:00:48","80.187.xxx.xxx",10715,447,22,"Frankfurt","Germany","DE",50.1109,8.6821,"avrx","Germany","DE","Hesse","HE","Moerfelden-Walldorf",49.975,8.603,10.0183,1,0,"Deutsche Telekom AG","1","Unknown","","0","0","iPhone 6S Plus","12.0.1",1,"Mörfelden-Walldorf, Germany","Mörfelden-Walldorf","locality","Germany","DE","Hesse","Darmstadt","Groß-Gerau","64546","","49.95569","8.60694",1
3319393782,115850679,"2019-07-01 00:00:50","117.230.xxx.xxx",2342,3481,67,"Bangalore","India","IN",12.9833,77.5833,"YOU Broadband India Pvt Ltd.","India","IN","Karnataka","KA","Bengaluru",12.973,77.619,2.5083,6,6,"BSNL","1","Carrier","IN","404","71","iPhone 7 Plus","12.3.1",1,"Bengaluru, Karnataka 560001, India","Bengaluru","locality","India","IN","Karnataka","Bangalore Urban","","560007","","12.97321","77.61904",1
3319393784,164813213,"2019-07-01 00:00:50","120.18.xxx.xxx",122256,37384,35,"Sydney","Australia","AU",-33.8600,151.2111,"Vodafone Hutchison Australia (NN)","Australia","AU","Victoria","VIC","Blackburn",-37.829,145.153,436.572,12,12,"Vodafone Australia","1","voda AU","AU","505","3","iPhone 7","12.3.1",1,"Blackburn VIC 3130, Australia","Blackburn","locality","Australia","AU","Victoria","Whitehorse City","","3130","","","",0
3319393787,168300957,"2019-07-01 00:00:50","210.149.xxx.xxx",2458,33030,90,"Tokyo","Japan","JP",35.6833,139.6833,"OPEN Project (via 20G SINET)","Japan","JP","Saitama Prefecture","11","Chuo",35.700,139.673,1.28615,12,12,"Internet Initiative Japan","1","ドコモ","JP","440","10","iPhone SE","12.3.1",2,"Nakano, Tokyo, Japan","Nakano","locality","Japan","JP","Tokyo","","","164-0011","","35.70010","139.67350",2
3319393789,170107926,"2019-07-01 00:00:50","1.144.xxx.xxx",109810,30473,20,"Sydney","Australia","AU",-33.8600,151.2111,"Telstra","Australia","AU","New South Wales","NSW","Sydney",-33.859,151.200,0.629753,12,12,"Telstra Internet","1","Telstra","AU","505","1","iPhone X","12.3.1",2,"Sydney Outskirts NSW, Australia","Sydney Outskirts","locality","Australia","AU","New South Wales","Sydney","","","","-33.85910","151.20020",2
3319393793,84901775,"2019-07-01 00:00:50","51.39.xxx.xxx",53553,10692,24,"Riyadh","Saudi Arabia","SA",24.6500,46.7100,"Zain KSA","Saudi Arabia","SA","Riyadh Province","01","Riyadh",24.653,46.715,0.415153,12,12,"Zain Saudi Arabia","1","Zain KSA","SA","420","4","iPhone 6S","12.1.2",2,"Riyadh Saudi Arabia","Riyadh","locality","Saudi Arabia","SA","Riyadh Province","","","12631","","24.65370","46.71520",2
3319393797,146869411,"2019-07-01 00:00:51","14.28.xxx.xxx",5390,21837,21,"Tai Po","Hong Kong","HK",22.4423,114.1655,"CSL","China","CN","Guangdong","GD","Foshan",22.764,113.241,63.0635,12,12,"China Telecom Guangdong","1","中国电信","CN","460","11","iPhone 6 Plus","11.3.1",1,"Foshan, Guangdong, China","Foshan","locality","China","CN","Guangdong","","","528306","","22.76472","113.24174",1
3319393798,114209155,"2019-07-01 00:00:51","176.204.xxx.xxx",129460,31449,35,"Dubai","United Arab Emirates","AE",25.2500,55.3000,"du","United Arab Emirates","AE","Dubai","DU","Dubai",25.263,55.308,1.06894,12,12,"Emirates Telecommunications Corporation","1","etisalat","AE","424","2","iPhone 7 Plus","12.3.1",2,"Dubai - Dubai - United Arab Emirates","Dubai","locality","United Arab Emirates","AE","Dubai","","","","","25.26330","55.30870",2
3319393801,164431719,"2019-07-01 00:00:51","85.140.xxx.xxx",45055,24611,69,"Samara","Russian Federation","RU",53.2333,50.1667,"DOM.RU","Russia","RU","Samara Oblast","SAM","Unknown",53.181,50.121,4.04923,12,12,"MTS PJSC","1","Mobile TeleSystems","RU","250","1","iPhone 8 Plus","12.2",2,"Samara Oblast, Russia","Samara Oblast","administrative_area_level_1","Russia","RU","Samara Oblast","","","","","53.18130","50.12180",2
3319393802,151440535,"2019-07-01 00:00:51","223.104.xxx.xxx",27093,1890,19,"ShangHai","China","CN",31.2000,121.5000,"China Unicom 5G","China","CN","Shanghai","SH","Shanghai",31.112,121.377,9.48147,12,12,"China Mobile Guangdong","1","中国移动","CN","460","0","iPhone 7","12.3.1",1,"Shanghai, Shanghai, China","Shanghai","locality","China","CN","Shanghai","","","","","31.11220","121.37704",1
3319393813,170546058,"2019-07-01 00:00:52","203.144.xxx.xxx",1224,4519,20,"Phnom Penh","Cambodia","KH",11.5500,104.9167,"Metfone","Cambodia","KH","Phnom Penh","12","Phnom Penh",11.566,104.897,1.71693,12,12,"Cambodian ISP, Country Wide, Wireless IAP","0","Carrier","KH","456","1","iPhone 8 Plus","12.3.2",1,"Phnom Penh 12000, Cambodia","Phnom Penh","locality","Cambodia","KH","Phnom Penh","","","","","11.56620","104.89751",1
3319393815,160155548,"2019-07-01 00:00:52","49.197.xxx.xxx",155984,8547,23,"Brisbane","Australia","AU",-27.4728,153.0278,"APNIC Pty Ltd","Australia","AU","Queensland","QLD","Mackenzie",-27.539,153.115,7.11557,12,12,"Optus","1","OPTUS","AU","505","2","iPhone 7","12.1.4",1,"Mackenzie QLD 4156, Australia","Mackenzie","locality","Australia","AU","Queensland","Brisbane City","","4156","","","",0
3319393820,130944860,"2019-07-01 00:00:52","151.36.xxx.xxx",7635,3504,41,"Milan","Italy","IT",45.4640,9.1916,"Wind Tre","Italy","IT","Tuscany","52","Pontedera",43.664,10.626,143.127,12,12,"Wind Tre","1","I WIND","IT","222","88","iPad7,4","12.4",1,"56025 Pontedera PI, Italy","Pontedera","locality","Italy","IT","Tuscany","Province of Pisa","Pontedera","56025","","43.66458","10.62614",1
3319393821,130479468,"2019-07-01 00:00:52","157.39.xxx.xxx",4599,4937,34,"Ludhiana","India","IN",30.9010,75.8573,"Jio","India","IN","Punjab","PB","Tanda",31.676,75.637,55.2237,12,12,"Jio","1","Jio","IN","405","867","iPhone 6","12.2",1,"Urmar Tanda, Punjab 144204, India","Urmar Tanda","locality","India","IN","Punjab","Hoshiarpur","","144204","","","",0
3319393826,142148283,"2019-07-01 00:00:53","62.44.xxx.xxx",95633,8936,22,"Taastrup","Denmark","DK",55.6460,12.2979,"Fullrate","Denmark","DK","Region Syddanmark","83","Odense",55.406,10.389,76.5319,12,12,"Telia Company","1","TELIA","DK","238","20","iPhone X","12.3.1",1,"Odense, Denmark","Odense","locality","Denmark","DK","Region Syddanmark","Odense Municipality","","5000","","55.40654","10.38944",1
3319393829,83566562,"2019-07-01 00:00:53","49.237.xxx.xxx",1368,22349,28,"Bangkok","Thailand","TH",13.7500,100.4833,"Bangmod Enterprise Co., Ltd.","Thailand","TH","Nakhon Pathom","73","Nakhon Pathom",13.716,100.216,18.0612,12,12,"True Internet","1","TRUE-H","TH","520","4","iPhone 6S","12.3.1",2,"Sam Phran, Sam Phran District, Nakhon Pathom 73110, Thailand","Sam Phran","locality","Thailand","TH","Nakhon Pathom","Sam Phran District","","73110","","13.71670","100.21670",2
3319393831,149314912,"2019-07-01 00:00:53","188.238.xxx.xxx",24493,24445,19,"Tallinn","Estonia","EE",59.4339,24.7549,"Elisa","Finland","FI","Uusimaa","18","Espoo",60.209,24.758,53.6225,12,12,"Telia Finland Oyj","1","Telia FI","FI","244","91","iPhone 8 Plus","12.3.2",1,"Espoo, Finland","Espoo","locality","Finland","FI","Espoo","","","02630","","60.20912","24.75829",1
3319393842,140914673,"2019-07-01 00:00:53","188.172.xxx.xxx",100798,33619,12,"Tirana","Albania","AL",41.3300,19.8200,"Vodafone Albania","Albania","AL","Tirana","11","Tirana",41.325,19.818,0.335795,12,12,"Vodafone Albania Sh.A.","1","VODAFONE AL","AL","276","2","iPhone 6 Plus","12.3.1",2,"Tirana, Albania","Tirana","locality","Albania","AL","Tirana","Tiranë","","","","","",0
3319393845,144732082,"2019-07-01 00:00:54","223.185.xxx.xxx",22209,1114,27,"Ludhiana","India","IN",30.9010,75.8573,"Netplus Broadband Services Private Limited","India","IN","Punjab","PB","Ludhiana",30.892,75.829,1.7602,12,12,"BHARTI Airtel","1","AirTel","IN","404","2","iPhone SE","12.1.3",1,"Ludhiana, Punjab 141001, India","Ludhiana","locality","India","IN","Punjab","Ludhiana","","141001","","30.89209","75.82952",1
3319393846,147569517,"2019-07-01 00:00:54","91.252.xxx.xxx",10461,4442,44,"Rome","Italy","IT",41.9000,12.5000,"Wind Tre","Italy","IT","Abruzzo","65","Cupello",42.079,14.667,112.129,5,5,"Wind Tre","1","3 ITA","IT","222","99","iPhone 7","12.3.1",1,"66050 Santa Lucia CH, Italy","Santa Lucia","locality","Italy","IT","Abruzzo","Province of Chieti","Monteodorisio","66050","","42.06879","14.69773",1
3319393849,129225765,"2019-07-01 00:00:54","89.144.xxx.xxx",88328,35131,23,"Linz","Austria","AT",48.3031,14.2906,"LIWEST","Austria","AT","Upper Austria","4","Nussdorf am Attersee",48.042,13.708,32.3204,12,12,"Telekom Austria","1","A1","AT","232","1","iPhone X","12.4",1,"Gemeinde Pühret, Austria","Gemeinde Pühret","administrative_area_level_3","Austria","AT","Upper Austria","Vöcklabruck District","Gemeinde Pühret","4800","","48.04284","13.70869",1
3319393858,112092583,"2019-07-01 00:00:54","188.170.xxx.xxx",54602,45149,13,"Saint Petersburg","Russian Federation","RU",59.9333,30.3333,"PJSC MegaFon","Russia","RU","St Petersburg","SPE","St Petersburg",59.898,30.261,3.47225,12,12,"PJSC MegaFon","1","MegaFon","RU","250","2","iPhone5S","8.4",2,"St Petersburg, Russia","Saint Petersburg","locality","Russia","RU","Saint Petersburg","gorod Sankt-Peterburg","","198099","","","",0
3319393861,158584636,"2019-07-01 00:00:55","95.187.xxx.xxx",8504,139,43,"Najran","Saudi Arabia","SA",17.5656,44.2289,"Saudi Telecom Company (STC)","Saudi Arabia","SA","Unknown","??","Ad Darb",18.223,42.802,104.358,2,6,"SaudiNet","1","Mobily","SA","420","3","iPhone XS","12.3.1",1,"Ahad Rafidah Saudi Arabia","Ahad Rafidah","locality","Saudi Arabia","SA","Aseer Province","","","62447","","18.22353","42.80217",1
3319393866,146151052,"2019-07-01 00:00:55","42.153.xxx.xxx",6534,3631,33,"Kuala Lumpur","Malaysia","MY",3.1357,101.6880,"Maxis","Malaysia","MY","Selangor","10","Petaling Jaya",3.107,101.629,4.49275,12,12,"Webe Digital Sdn. Bhd.","1","Carrier","my","502","153","iPhone 6S","12.2",2,"Petaling Jaya, Selangor, Malaysia","Petaling Jaya","locality","Malaysia","MY","Selangor","Petaling","","46100","","3.10710","101.62960",2
3319393868,159227683,"2019-07-01 00:00:55","223.185.xxx.xxx",11521,6523,27,"Mohali","India","IN",30.7800,76.6900,"Quadrant televentures Ltd.","India","IN","Punjab","PB","Mohali",30.780,76.690,0,12,12,"BHARTI Airtel","1","AirTel","IN","404","2","iPhone5","10.3.3",2,"Rehmanpur, Punjab, India","Rehmanpur","locality","India","IN","Haryana","Sahibzada Ajit Singh Nagar","","140301","","30.78000","76.69000",2
3319393870,70460142,"2019-07-01 00:00:55","122.155.xxx.xxx",2010,1782,37,"Samut Prakarn","Thailand","TH",13.5991,100.5998,"AIS","Thailand","TH","Bangkok","10","Bangkok",13.676,100.686,7.94078,5,5,"CAT Telecom public company Ltd","1","Carrier","TH","520","0","iPhone4S","9.3.5",1,"Bangkok, Thailand","Bangkok","locality","Thailand","TH","","","","10250","","","",0
3319393872,140518011,"2019-07-01 00:00:56","46.114.xxx.xxx",19223,31226,19,"Berlin","Germany","DE",52.5167,13.3833,"Vodafone Kabel Deutschland","Germany","DE","Berlin","BE","Berlin",52.532,13.401,1.30469,12,12,"O2 Deutschland","1","o2-de","DE","262","7","iPhone X","12.3.1",2,"Berlin, Germany","Berlin","locality","Germany","DE","Berlin","","","10119","","52.53210","13.40120",2
3319393873,170395913,"2019-07-01 00:00:56","183.171.xxx.xxx",1699,396,124,"Shah Alam","Malaysia","MY",3.0833,101.5333,"TIME dotcom Bhd.","Malaysia","MY","Selangor","10","Tanjong Karang",3.380,101.231,29.3008,12,12,"Celcom Axiata Berhad","1","Celcom","MY","502","19","iPhone 7 Plus","12.2",1,"Tanjong Karang, Selangor, Malaysia","Tanjong Karang","locality","Malaysia","MY","Selangor","Kuala Selangor","","45500","","3.38080","101.23127",1
3319393876,164621179,"2019-07-01 00:00:56","5.108.xxx.xxx",72132,25885,17,"Jeddah","Saudi Arabia","SA",21.5000,39.1833,"Mobily","Saudi Arabia","SA","Makkah Province","02","Jeddah",21.644,39.235,10.5606,12,12,"Mobily","1","Mobily","SA","420","3","iPhone XS Max","12.3.1",1,"Jeddah Saudi Arabia","Jeddah","locality","Saudi Arabia","SA","Makkah Province","","","23644","","21.64487","39.23551",1
3319393882,163529497,"2019-07-01 00:00:56","175.176.xxx.xxx",43822,9636,23,"Makati","Philippines","PH",14.5500,121.0300,"Smart Communications Inc.","Philippines","PH","Metro Manila","00","Makati City",14.563,121.030,0.921418,12,12,"Smart Broadband","1","Smart","PH","515","3","iPhone X","12.3.1",1,"Makati, Metro Manila, Philippines","Makati","locality","Philippines","PH","Metro Manila","","","","","","",0
3319393885,143253247,"2019-07-01 00:00:56","213.151.xxx.xxx",29549,19997,74,"Novy Urengoy","Russian Federation","RU",66.0833,76.6833,"JSC Sigma-KTV","Russia","RU","Yamalo-Nenets Autonomous Okrug","YAN","Novy Urengoy",66.091,76.675,0.619098,12,12,"Ekaterinburg-2000 LLC","1","Carrier","RU","250","35","iPhone 8","12.3.1",1,"Novy Urengoy, Yamalo-Nenets Autonomous Okrug, Russia","Novy Urengoy","locality","Russia","RU","Yamalo-Nenets Autonomous Okrug","gorod Novyy Urengoy","","629307","","66.09173","76.67588",1
3319393887,150718499,"2019-07-01 00:00:57","46.114.xxx.xxx",24368,21979,30,"Frankfurt","Germany","DE",50.1109,8.6821,"tuxdu.de - Linux // BASH // More","Germany","DE","Hesse","HE","Kaufungen",51.290,9.562,90.2767,12,12,"O2 Deutschland","1","o2-de","DE","262","7","iPhone 7","12.3.1",1,"Kaufungen, Germany","Kaufungen","locality","Germany","DE","Hesse","Kassel","Kassel","34260","","51.29086","9.56279",1
3319393904,170654393,"2019-07-01 00:00:58","49.215.xxx.xxx",7509,5443,15,"New Taipei","Taiwan","TW",25.0111,121.4458,"Chunghwa Mobile","Taiwan","TW","Taoyuan City","TAO","Nankan",25.049,121.293,9.93094,12,12,"TWN Broadband","1","台湾大哥大","TW","466","97","iPhone 6 Plus","12.3.1",1,"Taoyuan, Taoyuan District, Taoyuan City, Taiwan","Taoyuan","locality","Taiwan","TW","Taoyuan City","Taoyuan District","南門里","338","","25.04943","121.29305",1
3319393913,147735018,"2019-07-01 00:00:59","49.195.xxx.xxx",22953,3346,18,"Sydney","Australia","AU",-33.8600,151.2111,"'Yes' Optus","Australia","AU","New South Wales","NSW","Sydney",-33.912,151.115,6.55423,12,12,"Optus","1","OPTUS","AU","505","2","iPhone 8","12.3.1",1,"Canterbury NSW, Australia","Canterbury","locality","Australia","AU","New South Wales","Canterbury City Council","","2193","","-33.91197","151.11608",1
3319393929,168118266,"2019-07-01 00:01:00","42.107.xxx.xxx",16241,585,35,"Cochin","India","IN",9.9312,76.2673,"Vodafone India","India","IN","Kerala","KL","Changaramkulam",10.733,76.028,57.8314,6,6,"Vodafone India","1","Vodafone India","IN","404","46","iPhone 6S","12.3.1",1,"Changaramkulam, Kerala, India","Changaramkulam","locality","India","IN","Kerala","Malappuram","","679575","","10.73353","76.02847",1
3319393930,145768934,"2019-07-01 00:01:01","223.24.xxx.xxx",6049,7735,22,"Bangkok","Thailand","TH",13.7500,100.4833,"TCC Technology","Thailand","TH","Bangkok","10","Bangkok",13.724,100.566,5.87783,12,12,"True Internet","1","TRUE-H","TH","520","0","iPhone 7 Plus","12.3.1",1,"Bangkok, Thailand","Bangkok","locality","Thailand","TH","","","","10110","","13.72421","100.56666",1
3319393932,161270418,"2019-07-01 00:01:01","188.57.xxx.xxx",30972,11975,23,"Izmir","Turkey","TR",38.4202,27.1283,"Turkcell","Turkey","TR","Izmir Province","35","Izmir",38.337,27.119,5.7668,12,12,"Turkcell","1","Turkcell","TR","286","1","iPhone 7 Plus","12.3.1",1,"Izmir, İzmir, Turkey","Izmir","locality","Turkey","TR","İzmir","","","35410","","38.33714","27.11914",1
3319393934,164778432,"2019-07-01 00:01:01","91.252.xxx.xxx",19489,5110,67,"Milano","Italy","IT",45.4654,9.1859,"Nethive SRL","Italy","IT","Lombardy","25","Vigevano",45.318,8.843,19.4571,6,6,"Wind Tre","1","3 ITA","IT","222","99","iPhone XR","12.3.1",1,"Vigevano PV, Italy","Vigevano","locality","Italy","IT","Lombardy","Province of Pavia","Vigevano","27029","","45.31894","8.84392",1
3319393936,153720473,"2019-07-01 00:01:01","2.247.xxx.xxx",7695,3603,62,"Zurich","Switzerland","CH",47.3690,8.5380,"Wingo","Germany","DE","Baden-Württemberg","BW","Loerrach",47.607,7.658,44.3118,2,12,"O2 Deutschland","1","o2-de","DE","262","7","iPhone XR","12.3.1",1,"Lörrach, Germany","Lörrach","locality","Germany","DE","Baden-Württemberg","Freiburg","Lörrach","79539","","47.60774","7.65826",1
3319393940,164966345,"2019-07-01 00:01:02","123.136.xxx.xxx",2255,336,51,"Petaling Jaya","Malaysia","MY",3.0833,101.6500,"webe Digital Sdn Bhd","Malaysia","MY","Malacca","04","Durian Tunggal",2.309,102.318,70.6535,6,6,"U Mobile Sdn Bhd","1","U Mobile","MY","502","18","iPhone 6 Plus","12.3.1",1,"Durian Tunggal, Malacca, Malaysia","Durian Tunggal","locality","Malaysia","MY","Malacca","Alor Gajah","","76100","","2.30998","102.31807",1
3319393951,120094855,"2019-07-01 00:01:03","80.187.xxx.xxx",21100,5542,44,"Karlsruhe","Germany","DE",49.0092,8.4040,"TelemaxX Telekommunikation GmbH","Germany","DE","Bavaria","BY","Munich",48.149,11.585,157.225,12,12,"Deutsche Telekom AG","1","Telekom.de","DE","262","1","iPad7,4","13.0",2,"Munich, Germany","Munich","locality","Germany","DE","Bavaria","Upper Bavaria","","80539","","48.14970","11.58500",2
3319393963,165764661,"2019-07-01 00:01:04","78.95.xxx.xxx",101509,8487,26,"Riyadh","Saudi Arabia","SA",24.6500,46.7100,"Saudi Telecom Company (STC)","Saudi Arabia","SA","Riyadh Province","01","Riyadh",24.686,46.600,7.36592,12,12,"SaudiNet","1","STC","SA","420","1","iPhone X","12.1",1,"Riyadh Saudi Arabia","Riyadh","locality","Saudi Arabia","SA","Riyadh Province","","","12532","","","",0
3319393968,170268604,"2019-07-01 00:01:04","106.133.xxx.xxx",60528,7319,37,"Bunkyo","Japan","JP",35.7081,139.7522,"IPA CyberLab","Japan","JP","Saitama Prefecture","11","Tokorozawa",35.788,139.440,18.3618,12,12,"au one net","1","KDDI","JP","440","50","iPhone 7 Plus","12.4",1,"Tokorozawa, Saitama Prefecture, Japan","Tokorozawa","locality","Japan","JP","Saitama Prefecture","","","359-1145","","35.78830","139.44040",1
3319393975,161461193,"2019-07-01 00:01:04","106.121.xxx.xxx",2906,926,68,"Wuhan","China","CN",30.5833,114.2833,"China Telecom Wuhan Branch-2","China","CN","Jiangsu","JS","Suzhou",31.308,121.012,402.252,12,12,"China Telecom Guangdong","1","中国电信","CN","460","11","iPhone 7","12.0.1",1,"Suzhou, Jiangsu, China","Suzhou","locality","China","CN","Jiangsu","","","","","","",0
3319393988,139345086,"2019-07-01 00:01:06","106.77.xxx.xxx",12667,3856,69,"Ahmedabad","India","IN",23.0300,72.5800,"Vodafone India","India","IN","Gujarat","GJ","Ankleshwar",21.626,72.993,100.587,12,12,"Idea Cellular","1","Idea","IN","404","24","iPhone X","12.3.1",1,"Ankleshwar, Gujarat, India","Ankleshwar","locality","India","IN","Gujarat","Bharuch","","393001","","21.62691","72.99292",1
3319393990,170654394,"2019-07-01 00:01:06","49.199.xxx.xxx",10514,6049,22,"Burwood East","Australia","AU",-37.8136,144.9631,"Optus","Australia","AU","Victoria","VIC","Wycheproof",-36.138,143.265,149.072,12,12,"Optus","1","OPTUS","AU","505","2","iPhone X","12.3.1",1,"Wycheproof VIC 3527, Australia","Wycheproof","locality","Australia","AU","Victoria","Buloke Shire","","3527","","-36.14543","143.29136",1
3319393992,139001732,"2019-07-01 00:01:06","120.18.xxx.xxx",99594,13621,39,"Sydney","Australia","AU",-33.8600,151.2111,"Telstra","Australia","AU","New South Wales","NSW","Greenacre",-33.904,151.056,9.42141,12,12,"Vodafone Australia","1","voda AU","AU","505","3","iPhone 6S","12.2",2,"Greenacre NSW 2190, Australia","Greenacre","locality","Australia","AU","New South Wales","","","2190","","-33.90440","151.05600",2
3319393996,158497731,"2019-07-01 00:01:06","188.172.xxx.xxx",62583,7987,19,"Tirana","Albania","AL",41.3300,19.8200,"Albtelecom sh.a","Albania","AL","Tirana","11","Tirana",41.325,19.818,0.335795,12,12,"Vodafone Albania Sh.A.","1","VODAFONE AL","AL","276","2","iPhone X","12.3.1",2,"Tirana, Albania","Tirana","locality","Albania","AL","Tirana","Tiranë","","","","41.32530","19.81840",2
3319394004,170203022,"2019-07-01 00:01:07","1.47.xxx.xxx",125421,8373,36,"Bangkok","Thailand","TH",13.7500,100.4833,"Siamdata Communication Co.,Ltd","Thailand","TH","Bangkok","10","Bangkok",13.707,100.538,4.7262,6,6,"DTAC","1","dtac","TH","520","5","iPhone 8","12.3.1",1,"Bangkok, Thailand","Bangkok","locality","Thailand","TH","","","","10120","","13.70769","100.53853",1
3319394009,101798994,"2019-07-01 00:01:07","213.205.xxx.xxx",59175,23629,38,"Bristol","Great Britain","GB",51.4500,-2.5833,"Hub Network Services Ltd","United Kingdom","GB","Pembrokeshire","PEM","Pembroke",51.673,-4.892,100.483,12,12,"EE Mobile","1","EE","GB","234","30","iPhone 6S","12.2",1,"SA71, UK","Pembroke","locality","United Kingdom","GB","Wales","Pembrokeshire","Pembroke","SA71","","","",0
3319394017,159424031,"2019-07-01 00:01:08","107.77.xxx.xxx",107611,8747,30,"Los Angeles, CA","United States","US",34.0500,-118.2500,"Starry, Inc.","United States","US","California","CA","Riverside",33.889,-117.323,54.2715,12,12,"AT&T Wireless","1","AT&T","US","310","410","iPhone XS","12.3.1",1,"Riverside, CA, USA","Riverside","locality","United States","US","California","Riverside County","","92508","","33.88963","-117.32390",1
3319394018,132006408,"2019-07-01 00:01:08","123.136.xxx.xxx",35097,9017,34,"Petaling Jaya","Malaysia","MY",3.0833,101.6500,"webe Digital Sdn Bhd","Malaysia","MY","Selangor","10","Puchong Batu Dua Belas",3.073,101.622,2.04984,12,12,"U Mobile Sdn Bhd","1","U Mobile","MY","502","18","iPhone 7 Plus","12.3.1",2,"Puchong, Selangor, Malaysia","Puchong","locality","Malaysia","MY","Selangor","","","47100","","3.07320","101.62210",2
3319394022,170180333,"2019-07-01 00:01:08","94.128.xxx.xxx",40366,7462,30,"Kaifan","Kuwait","KW",29.2926,47.9057,"VIVA Kuwait","Kuwait","KW","Unknown","??","`Ashish al Jahra'",29.327,47.654,15.333,12,12,"Viva Kuwait","1","VIVA","KW","419","4","iPhone 8 Plus","12.3.1",1,"Jahra, Kuwait","Jahra","locality","Kuwait","KW","Jahra","","","","","29.32702","47.65457",1
3319394032,170597460,"2019-07-01 00:01:09","27.67.xxx.xxx",36339,16359,20,"Hanoi","Viet Nam","VN",21.0285,105.8542,"Vietnamobile","Vietnam","VN","Hai Duong","61","Ninh Giang",20.730,106.403,41.0541,12,12,"Viettel Group","1","Viettel","VN","452","4","iPhone 6S Plus","11.4.1",1,"TT. Ninh Giang, Ninh Giang, Hải Dương, Vietnam","TT. Ninh Giang","administrative_area_level_3","Vietnam","VN","Hai Duong","Ninh Giang","TT. Ninh Giang","","","20.72979","106.40426",1
3319394033,159944124,"2019-07-01 00:01:09","172.58.xxx.xxx",108010,14779,479,"Piracicaba","Brazil","BR",22.7626,47.8427,"INFOHELP TELECOM ME","Saudi Arabia","SA","Riyadh Province","01","Riyadh",24.851,46.657,162.805,12,12,"T-MOBILE USA","1","T-Mobile","US","310","260","iPhone XS Max","12.3.1",1,"Riyadh Saudi Arabia","Riyadh","locality","Saudi Arabia","SA","Riyadh Province","","","13333","","24.85175","46.65767",1
3319394041,102223231,"2019-07-01 00:01:09","1.200.xxx.xxx",19175,2795,33,"Taipei","Taiwan","TW",25.0333,121.5333,"Chief Telecom","Taiwan","TW","Taipei City","TPE","Taipei",25.047,121.531,1.00736,12,12,"Vibo Telecom","1","Carrier","TW","466","89","iPad Air 2","9.3.2",2,"Taipei, Taipei City, Taiwan","Taipei","locality","Taiwan","TW","Taipei City","","","104","","","",0
3319394051,169832754,"2019-07-01 00:01:10","113.210.xxx.xxx",21085,25495,31,"Kuala Lumpur","Malaysia","MY",3.1357,101.6880,"InNET","Malaysia","MY","Perak","08","Ipoh",4.589,101.078,108.983,12,12,"Maxis Communications","1","Maxis","MY","502","12","iPhone 7","12.3.1",1,"Ipoh, Perak, Malaysia","Ipoh","locality","Malaysia","MY","Perak","Kinta","Hulu Kinta","31650","","4.58901","101.07806",1
3319394054,169955437,"2019-07-01 00:01:10","80.89.xxx.xxx",35785,11509,18,"Riga","Latvia","LV",56.9496,24.1040,"Telenet, sia","Latvia","LV","Rīgas pilsēta","RIX","Riga",56.975,24.163,2.85614,12,12,"Latvijas Mobilais Telefons SIA","1","LMT","LV","247","1","iPhone 7 Plus","12.4",1,"Riga, Latvia","Riga","locality","Latvia","LV","Rīgas pilsēta","Rīgas pilsēta","","LV-1039","","56.97505","24.16364",1
3319394057,170654396,"2019-07-01 00:01:10","37.154.xxx.xxx",3147,67,21,"Istanbul","Turkey","TR",41.0136,28.9550,"Netcen Teknoloji","Turkey","TR","İstanbul","34","Istanbul",41.058,28.987,3.56134,6,6,"Turk Telekom","1","Turk Telekom","TR","286","3","iPhone X","12.3.1",1,"Istanbul, İstanbul, Turkey","Istanbul","locality","Turkey","TR","İstanbul","","","34384","","41.05873","28.98785",1
3319394068,167050007,"2019-07-01 00:01:11","120.17.xxx.xxx",29168,8458,29,"Sydney","Australia","AU",-33.8600,151.2111,"Vocus Communications","Australia","AU","New South Wales","NSW","Sydney",-33.737,151.290,9.63691,12,12,"Vodafone Australia","1","voda AU","AU","505","3","iPhone XR","12.3.1",1,"Collaroy Plateau NSW, Australia","Collaroy Plateau","locality","Australia","AU","New South Wales","Warringah Council","","2097","","-33.73708","151.29003",1
3319394070,88016584,"2019-07-01 00:01:11","42.108.xxx.xxx",25255,7674,25,"New Delhi","India","IN",28.6100,77.2300,"Vodafone India","India","IN","Delhi","DL","New Delhi",28.601,77.198,1.98038,1,0,"Vodafone India","1","Vodafone India","IN","404","11","iPhone 6S","10.3.3",2,"New Delhi, Delhi 110001, India","New Delhi","locality","India","IN","Delhi","","","110011","","28.60140","77.19890",2
3319394073,114556829,"2019-07-01 00:01:11","180.217.xxx.xxx",20951,1624,19,"Keelung","Taiwan","TW",25.1276,121.7392,"CNS","Taiwan","TW","Taipei City","TPE","Daling",25.154,121.618,7.81118,12,12,"Vibo Telecom","1","台灣之星","TW","466","89","iPhone 7","12.1.4",1,"Taiwan, 新北市萬里區溪底里","溪底里","administrative_area_level_4","Taiwan","TW","New Taipei City","Wanli District","溪底里","207","","25.15486","121.61814",1
3319394080,158303278,"2019-07-01 00:01:11","42.106.xxx.xxx",3141,2748,133,"Ahmedabad","India","IN",23.0300,72.5800,"Vodafone India","India","IN","Gujarat","GJ","Ahmedabad",23.071,72.619,3.79863,12,12,"Vodafone India","1","Vodafone India","IN","404","5","iPhone XS Max","12.3.1",1,"Ahmedabad, Gujarat, India","Ahmedabad","locality","India","IN","Gujarat","Ahmedabad","","382475","","23.07127","72.61938",1
3319394084,155949189,"2019-07-01 00:01:12","27.52.xxx.xxx",34577,19849,37,"Taichung","Taiwan","TW",24.1500,120.6667,"TINP","Taiwan","TW","Changhua County","CHA","Beidou",23.877,120.527,20.8148,12,12,"FarEasTone","1","遠傳電信","TW","466","1","iPhone XR","12.1.2",1,"Beidou, Beidou Township, Changhua County, Taiwan 521","Beidou","locality","Taiwan","TW","Changhua County","Beidou Township","","521","","","",0
3319394094,134485973,"2019-07-01 00:01:12","31.173.xxx.xxx",34341,42969,20,"Moscow","Russian Federation","RU",55.7517,37.6178,"Megafon","Russia","RU","Moscow Oblast","MOS","Firsanovka",55.934,37.189,20.9021,12,12,"PJSC MegaFon","1","MegaFon","RU","250","2","iPhone 8","12.3.1",1,"Bryokhovo, Moskovskaya oblast', Russia, 141544","Bryokhovo","locality","Russia","RU","Moscow Oblast","Solnechnogorsky District","","141544","","55.93513","37.18895",1
3319394099,144640236,"2019-07-01 00:01:13","5.38.xxx.xxx",62157,40444,26,"Dubai","United Arab Emirates","AE",25.2500,55.3000,"du","United Arab Emirates","AE","Abu Dhabi","AZ","Abu Dhabi",24.421,54.456,78.0347,12,12,"Emirates Telecommunications Corporation","1","etisalat","AE","424","2","iPhone 8 Plus","12.3.2",1,"Abu Dhabi - Abu Dhabi - United Arab Emirates","Abu Dhabi","locality","United Arab Emirates","AE","Abu Dhabi","","","","","24.42109","54.45673",1
3319394101,170654399,"2019-07-01 00:01:13","117.136.xxx.xxx",7862,907,24,"Park City, UT","USA","US",40.6461,111.4980,"Utah Broadband","China","CN","Beijing","BJ","Beijing",39.905,116.359,261.602,12,12,"China Mobile Guangdong","1","中国移动","CN","460","2","iPhone 8","12.3.1",1,"Beijing, Beijing, China","Beijing","locality","China","CN","Beijing","","","","","39.90582","116.35996",1
3319394105,162643408,"2019-07-01 00:01:13","124.160.xxx.xxx",132818,42053,26,"Hangzhou","China","CN",30.2500,120.1667,"China Telecom ZheJiang Branch","China","CN","Zhejiang","ZJ","Hangzhou",30.407,120.302,13.5568,12,12,"China Unicom Zhejiang","1","中国联通","CN","460","1","iPhone 6","11.3.1",1,"Hangzhou, Zhejiang, China","Hangzhou","locality","China","CN","Zhejiang","","","314422","","","",0
3319394108,146635341,"2019-07-01 00:01:14","114.125.xxx.xxx",736,5462,96,"Jakarta","Indonesia","ID",6.1751,106.8650,"PT. Aplikanusa Lintasarta","Malaysia","MY","Sarawak","13","Kampong Lundu",1.606,109.677,370.816,12,12,"Telkomsel","1","Carrier","ID","510","10","iPhone 8 Plus","12.3.2",1,"Sebunga', Sajingan Besar, Sambas Regency, West Kalimantan, Indonesia","Sebunga'","administrative_area_level_4","Indonesia","ID","West Kalimantan","Sambas Regency","Sajingan Besar, Sebunga'","79467","","1.60663","109.67732",1
3319394119,160310876,"2019-07-01 00:01:14","49.224.xxx.xxx",25181,12740,51,"Hamilton","New Zealand","NZ",-37.7833,175.2833,"Lightwire Limited","New Zealand","NZ","Bay Of Plenty","BOP","Tauranga",-37.682,176.170,49.0041,12,12,"Vodafone New Zealand","1","Voda NZ","NZ","530","1","iPhone 7 Plus","12.3.1",1,"Tauranga, New Zealand","Tauranga","locality","New Zealand","NZ","Bay Of Plenty","Tauranga City","","3110","","-37.68270","176.17002",1
3319394120,106316916,"2019-07-01 00:01:14","5.108.xxx.xxx",30546,13646,19,"Jeddah","Saudi Arabia","SA",21.5000,39.1833,"Mobily","Saudi Arabia","SA","Makkah Province","02","Jeddah",21.485,39.205,1.77024,12,12,"Mobily","1","Mobily","SA","420","3","iPhone 7 Plus","12.4",1,"Jeddah Saudi Arabia","Jeddah","locality","Saudi Arabia","SA","Makkah Province","","","22242","","21.48502","39.20560",1
3319394121,142990949,"2019-07-01 00:01:14","80.12.xxx.xxx",29417,31717,27,"Paris","France","FR",48.8742,2.3470,"SEWAN","France","FR","Île-de-France","IDF","Paris",48.841,2.401,3.34042,12,12,"Orange","1","Orange France","FR","208","1","iPhone SE","12.3.1",1,"Paris, France","Paris","locality","France","FR","Île-de-France","Paris","","75012","","48.84151","2.40103",1
3319394129,136555730,"2019-07-01 00:01:15","5.90.xxx.xxx",36327,8095,22,"Milan","Italy","IT",45.4640,9.1916,"Vodafone IT","Italy","IT","Veneto","34","Treviso",45.666,12.245,148.55,12,12,"Vodafone Italia","1","Vodafone IT","IT","222","10","iPhone 7 Plus","12.4",1,"Treviso TV, Italy","Treviso","locality","Italy","IT","Veneto","Province of Treviso","Treviso","31100","","45.66651","12.24569",1
3319394130,170052204,"2019-07-01 00:01:15","179.238.xxx.xxx",23049,8300,73,"Gravata","Brazil","BR",-8.1997,-35.5667,"NET.COM TELECOMMUNICAÇÕES","Brazil","BR","State of Pernambuco","PE","Palmares",-8.674,-35.589,32.9017,12,12,"Oi Velox","1","Oi","BR","724","31","iPhone 7","12.3.1",1,"Palmares, Palmares - PE, Brazil","Palmares","locality","Brazil","BR","State of Pernambuco","Palmares","","55540-000","","-8.67509","-35.58705",1
3319394131,166516980,"2019-07-01 00:01:15","80.106.xxx.xxx",15162,623,108,"Kurdzhali","Bulgaria","BG",41.6465,25.3712,"Technolux","Greece","GR","East Macedonia and Thrace","A","Keramoti",40.855,24.696,65.0115,2,12,"OTEnet S.A.","1","COSMOTE","GR","202","1","iPhone 6S","12.1.4",1,"Keramoti, Greece","Keramoti","locality","Greece","GR","Makedonia Thraki","East Macedonia and Thrace","Kavala Prefecture, Nestos, Keramoti","640 11","","40.84299","24.69249",1
3319394132,123048893,"2019-07-01 00:01:15","183.83.xxx.xxx",2878,24667,60,"Hyderabad","India","IN",17.3700,78.4800,"Pioneer Elabs Limited.","India","IN","Telangana","TG","Secunderabad",17.475,78.495,7.35538,2,12,"ACT Fibernet","1","Jio","IN","405","854","iPhone 7 Plus","12.3.1",1,"Secunderabad, Telangana, India","Secunderabad","locality","India","IN","Telangana","Hyderabad","","500009","","17.47531","78.49547",1
3319394136,167466374,"2019-07-01 00:01:15","123.136.xxx.xxx",67651,2883,38,"Petaling Jaya","Malaysia","MY",3.0833,101.6500,"Celcom Axiata","Malaysia","MY","Selangor","10","Seri Kembangan",3.024,101.716,6.12883,5,5,"U Mobile Sdn Bhd","1","U Mobile","MY","502","18","iPhone XS","12.3.1",1,"Seri Kembangan, Selangor, Malaysia","Seri Kembangan","locality","Malaysia","MY","Selangor","Petaling","Petaling","43300","","3.02794","101.71959",1
3319394137,153139906,"2019-07-01 00:01:16","45.64.xxx.xxx",21075,13048,29,"Hong Kong","Hong Kong","HK",22.2500,114.1667,"GTT.net","Hong Kong","HK","Central And Western District","HCW","Hong Kong",22.358,114.122,8.02764,12,12,"Smartone Mobile communications Limited","1","SMC HK","HK","454","6","iPhone XS","12.3.1",1,"Hong Kong, Hong Kong","Hong Kong","locality","Hong Kong","HK","","","","","","22.35871","114.12278",1
3319394143,104910868,"2019-07-01 00:01:16","51.36.xxx.xxx",18508,5310,72,"Jeddah","Saudi Arabia","SA",21.5000,39.1833,"Mobily","Saudi Arabia","SA","Al Madinah Province","03","Medina",24.451,39.598,205.875,12,12,"Zain Saudi Arabia","1","Zain KSA","SA","420","4","iPhone 6S","12.2",1,"Medina Saudi Arabia","Medina","locality","Saudi Arabia","SA","Al Madinah Province","","","42315","","","",0
3319394145,164645372,"2019-07-01 00:01:16","37.227.xxx.xxx",105566,30022,47,"Rome","Italy","IT",41.9000,12.5000,"Wind Tre","Italy","IT","Unknown","??","Unknown",43.147,12.109,88.5807,12,12,"Wind Tre","1","3 ITA","IT","222","99","iPhone X","12.3.1",2,"Italy","Italy","country","Italy","IT","","","","","","43.14790","12.10970",2
3319394153,170654400,"2019-07-01 00:01:16","203.145.xxx.xxx",26281,17375,24,"Hong Kong","China","HK",22.2500,114.1667,"Website Solution Limited","Hong Kong","HK","Central And Western District","HCW","Central",22.290,114.150,3.02426,12,12,"Hutchison Telephone Company Limited","1","3","HK","454","3","iPhone SE","12.1",2,"Hong Kong, Hong Kong","Hong Kong","locality","Hong Kong","HK","","","","","","22.29090","114.15000",2
3319394158,169638921,"2019-07-01 00:01:17","115.164.xxx.xxx",66855,14326,21,"Cyberjaya","MY","MY",2.9225,101.6550,"Extreme Broadband","Malaysia","MY","Negeri Sembilan","05","Labu",2.765,101.829,16.2284,12,12,"DIGI","1","DiGi","MY","502","16","iPhone 6","10.0.2",1,"Labu, Negeri Sembilan, Malaysia","Labu","locality","Malaysia","MY","Negeri Sembilan","Seremban","Labu","71900","","2.76530","101.82938",1
3319394161,167071108,"2019-07-01 00:01:17","82.137.xxx.xxx",27688,6520,30,"Oradea","Romania","RO",47.0722,21.9211,"Hextech air conditioning","Romania","RO","Hunedoara County","HD","Brad",46.131,22.789,77.0504,12,12,"RCS & RDS Mobile","1","Carrier","RO","226","5","iPhone SE","12.1.2",1,"Brad 335200, Romania","Brad","locality","Romania","RO","Hunedoara County","Brad","","335200","","46.13143","22.78929",1
3319394165,146956704,"2019-07-01 00:01:17","188.172.xxx.xxx",88731,649,30,"Durres","Albania","AL",41.3167,19.4500,"Albtelecom sh.a","Albania","AL","Shkodër County","10","Shkoder",42.075,19.524,52.6428,12,12,"Vodafone Albania Sh.A.","1","VODAFONE AL","AL","276","2","iPhone 6S","12.3.1",1,"Shkodër, Albania","Shkodër","locality","Albania","AL","","","","","","42.07575","19.52407",1
3319394171,146313579,"2019-07-01 00:01:18","85.255.xxx.xxx",12199,2657,43,"Bath","GB","GB",51.3758,-2.3599,"Truespeed Communications","United Kingdom","GB","Dorset","DOR","Chickerell",50.626,-2.509,52.2174,12,12,"Vodafone Limited","1","vodafone UK","GB","234","15","iPhone 8","12.4",1,"Weymouth DT3, UK","Chickerell","locality","United Kingdom","GB","England","Dorset","West Dorset District, Chickerell","DT3","","50.62675","-2.50909",1
3319394175,61859001,"2019-07-01 00:01:18","90.232.xxx.xxx",7018,2233,19,"Copenhagen","Denmark","DK",55.6750,12.5687,"Telia Denmark","Sweden","SE","Blekinge County","K","Hassloe",56.151,15.450,116.467,12,12,"Telia Company","1","TELIA","SE","240","1","iPad Air","12.3.1",1,"Ronneby S, Sweden","Ronneby S","sublocality_level_1","Sweden","SE","Blekinge County","Ronneby","","370 24","","56.15154","15.45014",1
3319394177,170653701,"2019-07-01 00:01:18","5.173.xxx.xxx",29387,19312,66,"Starogard Gdański","Poland","PL",53.9656,18.5163,"ZIPnet","Poland","PL","Pomeranian Voivodeship","PM","Pruszcz Gdanski",54.262,18.636,21.1319,12,12,"Play","1","Play","PL","260","6","iPhone 7 Plus","12.4",1,"83, Poland","Pruszcz Gdański","locality","Poland","PL","Pomeranian Voivodeship","Gdańsk County","Gmina Pruszcz Gdański","83","","54.26289","18.63635",1
3319394184,170654404,"2019-07-01 00:01:19","51.36.xxx.xxx",52308,23909,79,"Riyadh","Saudi Arabia","SA",24.6500,46.7100,"Zain KSA","Saudi Arabia","SA","Riyadh Province","01","Ad Dilam",23.483,46.848,81.1506,12,12,"Zain Saudi Arabia","1","Zain KSA","SA","420","4","iPhone 6","12.3.1",1,"Howtat Bani Tamim Saudi Arabia","Howtat Bani Tamim","locality","Saudi Arabia","SA","Riyadh Province","","","16513","","23.48364","46.84856",1
3319394190,102296767,"2019-07-01 00:01:19","85.26.xxx.xxx",26849,3128,15,"Samara","Russian Federation","RU",53.2333,50.1667,"Rostelecom","Russia","RU","Samara Oblast","SAM","Samara",53.181,50.121,4.04923,12,12,"PJSC MegaFon","1","MegaFon","RU","250","2","iPhone5S","12.3.1",2,"Samara, Samara Oblast, Russia","Samara","locality","Russia","RU","Samara Oblast","gorod Samara","","443036","","53.18130","50.12180",2
3319394191,140060324,"2019-07-01 00:01:19","94.197.xxx.xxx",2917,8502,47,"Bath","United Kingdom","GB",51.3758,-2.3599,"University of Bath","United Kingdom","GB","Bath and North East Somerset","BAS","Bath",51.392,-2.356,1.19077,12,12,"Three","1","Three","GB","234","20","iPhone X","12.3.1",1,"Bath BA1, UK","Bath","locality","United Kingdom","GB","England","Bath and North East Somerset","","BA1","","51.39289","-2.35658",1
3319394193,161817921,"2019-07-01 00:01:19","80.187.xxx.xxx",13920,3004,55,"Frankfurt","Germany","DE",50.1109,8.6821,"31173 Services AB","Germany","DE","Unknown","??","Unknown",51.299,9.491,89.5129,6,6,"Deutsche Telekom AG","1","Telekom.de","DE","262","1","iPhone XS","12.1",2,"Germany","Germany","country","Germany","DE","","","","","","51.29930","9.49100",2
3319394199,161782708,"2019-07-01 00:01:20","180.204.xxx.xxx",128497,10392,19,"Banqiao","Taiwan","TW",25.0114,121.4618,"CNS","Taiwan","TW","Taipei City","TPE","Taipei",24.984,121.423,3.01282,12,12,"Taiwan Mobile","1","台湾大哥大","TW","466","97","iPhone 7","12.3.1",1,"New Taipei, Banqiao District, New Taipei City, Taiwan","New Taipei","locality","Taiwan","TW","New Taipei City","Luzhou District","","238","","24.98479","121.42375",1
3319394203,168838804,"2019-07-01 00:01:20","42.106.xxx.xxx",6577,920,25,"Mumbai","India","IN",18.9647,72.8258,"Vodafone India","India","IN","Maharashtra","MH","Mumbai",19.137,72.866,12.2734,12,12,"Vodafone India","1","Vodafone India","IN","404","20","iPhone 8 Plus","12.3.2",1,"Mumbai, Maharashtra, India","Mumbai","locality","India","IN","Maharashtra","Mumbai","","400093","","19.13787","72.86672",1
3319394210,164872164,"2019-07-01 00:01:21","113.210.xxx.xxx",96483,29637,29,"Kuala Lumpur","Malaysia","MY",3.1357,101.6880,"Maxis","Malaysia","MY","Malacca","04","Durian Tunggal",2.310,102.319,71.8081,12,12,"Maxis Communications","1","Maxis","MY","502","12","iPhone XS Max","12.3.1",1,"Durian Tunggal, Malacca, Malaysia","Durian Tunggal","locality","Malaysia","MY","Malacca","Alor Gajah","","76100","","2.31091","102.31915",1
3319394215,87031048,"2019-07-01 00:01:21","93.32.xxx.xxx",5579,128,38,"Milan","Italy","IT",45.4640,9.1916,"KPNQwest Italia S.p.A.","Italy","IT","Lombardy","25","Milan",45.539,8.954,12.6283,6,6,"Fastweb","1","Carrier","IT","222","8","iPhone5C","10.3.3",2,"20015 Villastanza MI, Italy","Villastanza","locality","Italy","IT","Lombardy","Metropolitan City of Milan","Parabiago","20015","","45.53960","8.95450",2
3319394219,125770509,"2019-07-01 00:01:21","1.129.xxx.xxx",66235,21649,22,"Sydney","Australia","AU",-33.8600,151.2111,"Tello","Australia","AU","New South Wales","NSW","Werrington County",-33.740,150.740,28.2886,12,12,"Telstra Internet","1","Telstra","AU","505","1","iPhone 7","12.3.1",1,"Werrington County NSW 2747, Australia","Werrington County","locality","Australia","AU","New South Wales","Penrith City Council","","2747","","-33.74025","150.74052",1
3319394230,157183653,"2019-07-01 00:01:22","172.58.xxx.xxx",72287,28861,67,"Salt Lake City, UT","United States","US",40.7500,-111.8833,"UTOPIA","United States","US","Utah","UT","Ogden",41.265,-111.995,36.1344,12,12,"T-MOBILE USA","1","T-Mobile","US","310","260","iPhone X","12.3.1",1,"Ogden, UT, USA","Ogden","locality","United States","US","Utah","Weber County","","84404","","41.26554","-111.99509",1
3319394233,166591761,"2019-07-01 00:01:22","174.218.xxx.xxx",39900,3433,39,"Thomasville, GA","United States","US",30.8364,-83.9783,"CNS Internet","United States","US","Georgia","GA","Lyons",32.168,-82.302,135.109,12,12,"VERIZON WIRELESS","1","Verizon","US","311","480","iPhone 7 Plus","12.3.1",1,"Toombs County, GA, USA","Toombs County","administrative_area_level_2","United States","US","Georgia","Toombs County","","30436","","32.16844","-82.30264",1
3319394245,167817863,"2019-07-01 00:01:23","223.184.xxx.xxx",9456,12777,96,"Ahmedabad","India","IN",23.0300,72.5800,"Bharti Airtel Ltd.","India","IN","Madhya Pradesh","MP","Indore",22.756,75.881,211.21,12,12,"BHARTI Airtel","1","AirTel","IN","404","93","iPhone XR","12.3.1",1,"Indore, Madhya Pradesh 452001, India","Indore","locality","India","IN","Madhya Pradesh","Indore","","452010","","22.75640","75.88130",1
3319394249,161104275,"2019-07-01 00:01:24","119.160.xxx.xxx",18983,33923,43,"Lahore","Pakistan","PK",31.5758,74.3269,"Jazz","Pakistan","PK","Punjab","PB","Lahore",31.425,74.273,10.8412,12,12,"Mobilink Mobile Internet","1","Jazz","PK","410","1","iPhone 7","12.1.4",1,"Lahore, Pakistan","Lahore","locality","Pakistan","PK","Punjab","Lahore District","","","","31.42686","74.27300",1
3319394254,166729018,"2019-07-01 00:01:24","223.24.xxx.xxx",20696,9501,34,"Bangkok","Thailand","TH",13.7500,100.4833,"Chulalongkorn University","Thailand","TH","Bangkok","10","Bangkok",13.808,100.615,9.73469,12,12,"True Internet","1","TRUE-H","TH","520","0","iPad7,6","12.2",1,"Bangkok, Thailand","Bangkok","locality","Thailand","TH","","","","10230","","13.80823","100.61522",1
3319394259,89311958,"2019-07-01 00:01:25","223.225.xxx.xxx",3407,145,30,"Gurgaon","India","IN",28.4615,77.0178,"Touch Net India Pvt. Ltd","India","IN","Haryana","HR","Gurgaon",28.496,77.067,3.88741,12,12,"BHARTI Airtel","1","AirTel","IN","404","10","iPhone5S","10.2.1",1,"Gurgaon, Haryana 122001, India","Gurgaon","locality","India","IN","Haryana","Gurgaon","","122008","","","",0
3319394263,127270916,"2019-07-01 00:01:25","112.96.xxx.xxx",15943,8677,28,"Macau","Macau","MO",22.2047,113.5552,"MTel","China","CN","Guangdong","GD","Zhuhai",22.349,113.529,10.1211,12,12,"China Unicom Guangdong province","1","中国联通","CN","460","1","iPhone 6","8.1.2",1,"Zhuhai, Guangdong, China","Zhuhai","locality","China","CN","Guangdong","","","","","","",0
3319394267,146869411,"2019-07-01 00:01:25","14.28.xxx.xxx",56140,22293,28,"Tai Po","Hong Kong","HK",22.4423,114.1655,"CSL","China","CN","Guangdong","GD","Foshan",22.764,113.241,63.0635,12,12,"China Telecom Guangdong","1","中国电信","CN","460","11","iPhone 6 Plus","11.3.1",1,"Foshan, Guangdong, China","Foshan","locality","China","CN","Guangdong","","","528306","","22.76472","113.24174",1
3319394276,170651615,"2019-07-01 00:01:26","113.210.xxx.xxx",21293,1814,31,"Putrajaya","Malaysia","MY",2.9264,101.6964,"UNIVERSITI TENAGA NASIONAL","Malaysia","MY","Malacca","04","Durian Tunggal",2.307,102.282,58.9119,12,12,"Maxis Communications","1","Maxis","MY","502","12","iPhone XS","12.3.1",1,"Durian Tunggal, Malacca, Malaysia","Durian Tunggal","locality","Malaysia","MY","Malacca","Alor Gajah","","76100","","2.30781","102.28245",1
3319394278,168126376,"2019-07-01 00:01:26","182.232.xxx.xxx",89594,28948,22,"Bangkok","Thailand","TH",13.7500,100.4833,"AWN","Thailand","TH","Bangkok","10","Bangkok",13.708,100.455,3.4264,12,12,"AIS Mobile","1","AIS","TH","520","3","iPhone 8 Plus","12.3.2",2,"Bangkok, Thailand","Bangkok","locality","Thailand","TH","","","","10150","","13.70860","100.45530",2
3319394279,157569787,"2019-07-01 00:01:26","83.149.xxx.xxx",197,4736,59,"Ufa","Russian Federation","RU",54.7500,55.9667,"TTK","Russia","RU","Republic of Bashkortostan","BA","Ufa",54.713,55.836,5.77852,12,12,"PJSC MegaFon","1","MegaFon","RU","250","2","iPhone 8","12.3.1",1,"Ufa, Republic of Bashkortostan, Russia","Ufa","locality","Russia","RU","Republic of Bashkortostan","Ufimsky District","","450014","","54.71331","55.83672",1
3319394281,155249753,"2019-07-01 00:01:26","39.10.xxx.xxx",75365,35018,30,"Taichung","Taiwan","TW",24.1500,120.6667,"TBC","Taiwan","TW","Taiwan Province","04","Yunlin County",23.762,120.504,28.6868,12,12,"FarEasTone","1","遠傳電信","TW","466","1","iPhone XR","12.3.1",1,"Taiwan, 雲林縣莿桐鄉莿桐鄉","莿桐鄉","locality","Taiwan","TW","Taiwan Province","Yunlin County","Citong Township, 饒平村","647","","23.76264","120.50458",1
3319394282,170654119,"2019-07-01 00:01:26","117.10.xxx.xxx",25601,17808,25,"Tianjin","China","CN",39.3434,117.3616,"Beijing Connect Trunk","China","CN","Tianjin","TJ","Tianjin",39.142,117.172,17.2048,12,12,"China Unicom Tianjin","1","中国联通","CN","460","1","iPhone 6S Plus","12.2",2,"Tianjin, Tianjin, China","Tianjin","locality","China","CN","Tianjin","","","300071","","39.14230","117.17260",2
3319394287,167881403,"2019-07-01 00:01:27","49.219.xxx.xxx",52750,2465,23,"Taipei","Taiwan","TW",25.0333,121.5333,"Chunghwa Mobile","Taiwan","TW","Taipei City","TPE","Taipei",25.047,121.531,1.00736,12,12,"TWN Broadband","1","台湾大哥大","TW","466","97","iPhone 8 Plus","12.3.2",2,"Taipei, Taipei City, Taiwan","Taipei","locality","Taiwan","TW","Taipei City","","","104","","25.04780","121.53180",2
3319394290,100004497,"2019-07-01 00:01:27","5.108.xxx.xxx",106375,5252,29,"Jeddah","Saudi Arabia","SA",21.5000,39.1833,"Mobily","Saudi Arabia","SA","Makkah Province","02","Jeddah",21.593,39.155,6.735,12,12,"Mobily","1","Mobily","SA","420","3","iPhone 7","12.3.1",1,"Jeddah Saudi Arabia","Jeddah","locality","Saudi Arabia","SA","Makkah Province","","","23437","","21.59388","39.15553",1
3319394293,135303700,"2019-07-01 00:01:27","122.100.xxx.xxx",7727,5161,48,"Yamato","Japan","JP",35.4875,139.4579,"ymsr.cloud","Japan","JP","Unknown","??","Unknown",35.690,139.690,19.148,12,12,"K-Opticom Corporation","1","KDDI","JP","440","50","iPhone 7","12.4",2,"Japan","Japan","country","Japan","JP","","","","","","","",0
3319394295,144080249,"2019-07-01 00:01:27","109.40.xxx.xxx",4628,647,35,"Dusseldorf","Germany","DE",51.2256,6.7828,"myLoc managed IT AG","Germany","DE","North Rhine-Westphalia","NW","Duisburg",51.433,6.750,14.4364,6,6,"Vodafone GmbH","1","Vodafone.de","DE","262","2","iPhone 8","12.3.1",2,"Duisburg, Germany","Duisburg","locality","Germany","DE","North Rhine-Westphalia","Düsseldorf","","47059","","51.43330","6.75000",2
3319394297,167699875,"2019-07-01 00:01:28","37.157.xxx.xxx",44926,19221,132,"Kufstein","Austria","AT",47.5833,12.1667,"KufNet","Austria","AT","Salzburg","05","Saalbach",47.389,12.624,25.2556,6,6,"Telia Eesti","1","Carrier","EE","248","1","iPad mini 4","12.3.1",1,"Gemeinde Saalbach-Hinterglemm, Austria","Gemeinde Saalbach-Hinterglemm","administrative_area_level_3","Austria","AT","Salzburg","Zell am See District","Gemeinde Saalbach-Hinterglemm","5753","","47.38974","12.62484",1
3319394303,135423634,"2019-07-01 00:01:28","31.2.xxx.xxx",26870,12841,26,"Tehran","Iran","IR",35.6833,51.4167,"Hamrah Aval (MCI)","Iran","IR","Gilan","19","Rasht",37.259,49.585,149.209,12,12,"Mobile Communication Company of Iran","1","Carrier","IR","432","11","iPhone 8 Plus","12.3.2",1,"Rasht, Gilan, Iran","Rasht","locality","Iran","IR","Gilan","","","","","37.25963","49.58534",1
3319394320,166779851,"2019-07-01 00:01:30","174.219.xxx.xxx",10891,4164,53,"Bloomington, MN","United States","US",44.8408,-93.2983,"Verizon","United States","US","Minnesota","MN","Minneapolis",44.960,-93.264,8.4736,12,12,"VERIZON WIRELESS","1","Verizon","US","311","480","iPhone XS","12.3.1",2,"Minneapolis, MN, USA","Minneapolis","locality","United States","US","Minnesota","Hennepin County","","55404","2600:1014:b056:501x:xxxx:xxxx:xxxx:xxxx","44.96090","-93.26420",2
3319394326,136772349,"2019-07-01 00:01:30","151.255.xxx.xxx",21784,33837,63,"Hail","Saudi Arabia","SA",27.5114,41.7208,"Saudi Telecom Company (STC)","Saudi Arabia","SA","Northern Borders","08","Arar",30.978,41.000,243.722,12,12,"SaudiNet","1","STC","SA","420","1","iPhone 7","12.3.1",1,"Arar Saudi Arabia","Arar","locality","Saudi Arabia","SA","Northern Borders Province","","","73312","","30.97637","40.99573",1
3319394331,170034802,"2019-07-01 00:01:30","223.140.xxx.xxx",193603,46292,18,"Taipei","Taiwan","TW",25.0329,121.5654,"Kbro","Taiwan","TW","Taipei City","TPE","Taipei",25.035,121.560,0.364062,12,12,"Chunghwa Telecom","1","中華電信","TW","466","92","iPhone XR","12.4",1,"Taipei, Taipei City, Taiwan","Taipei","locality","Taiwan","TW","Taipei City","","","110","","25.03505","121.56010",1
3319394343,169811309,"2019-07-01 00:01:32","85.255.xxx.xxx",4419,416,53,"London","United Kingdom","GB",51.5171,-0.1062,"Telxius","United Kingdom","GB","England","ENG","London",51.415,-0.089,7.09237,6,6,"Vodafone Limited","1","vodafone UK","GB","234","15","iPhone 7","12.3.1",1,"London SE19, UK","London","locality","United Kingdom","GB","England","Greater London","","SE19","","51.41511","-0.08925",1
3319394351,148966480,"2019-07-01 00:01:33","110.54.xxx.xxx",13247,1782,63,"Lucena","Philippines","PH",13.9333,121.6167,"PLDT","Philippines","PH","Bicol","05","Virac",13.604,124.292,181.191,12,12,"Globe Telecom","1","Smart","PH","515","3","iPhone 8 Plus","12.1",1,"Bato, Catanduanes, Philippines","Bato","locality","Philippines","PH","Bicol","Catanduanes","","","","13.60413","124.29233",1
3319394356,166385706,"2019-07-01 00:01:33","223.24.xxx.xxx",4469,77,34,"Bangkok","Thailand","TH",13.7500,100.4833,"AWN","Thailand","TH","Bangkok","10","Bangkok",13.715,100.417,5.04074,12,12,"True Internet","1","TRUE-H","TH","520","0","iPhone X","12.3.1",2,"Bangkok, Thailand","Bangkok","locality","Thailand","TH","","","","10160","","13.71590","100.41700",2
3319394357,170654415,"2019-07-01 00:01:33","156.186.xxx.xxx",29009,14435,30,"Giza","Egypt","EG",30.0131,31.2089,"Orange Egypt","Egypt","EG","Cairo Governorate","C","Al Basatin",29.974,31.281,5.109,12,12,"Etisalat MISR","1","Etisalat","EG","602","3","iPhone 6S Plus","12.3.1",1,"El-Basatin Sharkeya, El-Basatin, Cairo Governorate, Egypt","El-Basatin Sharkeya","administrative_area_level_3","Egypt","EG","Cairo Governorate","El-Basatin","El-Basatin Sharkeya","","","29.97507","31.28352",1
3319394376,128247687,"2019-07-01 00:01:34","178.133.xxx.xxx",46061,21762,17,"Kyiv","Ukraine","UA",50.4500,30.5233,"VF Ukraine","Ukraine","UA","Kyiv city","30","Kyiv",50.370,30.540,5.56156,12,12,"PrJSC VF UKRAINE","1","Vodafone UA","UA","255","1","iPhone 6S","12.2",1,"Kiev, Ukraine, 02000","Kiev","locality","Ukraine","UA","Kyiv city","Kyiv City","","02000","","50.37038","30.54087",1
3319394387,137498828,"2019-07-01 00:01:35","101.9.xxx.xxx",210349,51482,19,"Taipei","Taiwan","TW",25.0333,121.5333,"BGP Network","Taiwan","TW","Taipei City","TPE","Taipei",25.080,121.569,3.93811,12,12,"Taiwan Mobile","1","台湾大哥大","TW","466","97","iPhone X","12.3.1",1,"Taipei, Taipei City, Taiwan","Taipei","locality","Taiwan","TW","Taipei City","","","114","","25.08012","121.56906",1
3319394388,150204268,"2019-07-01 00:01:35","37.161.xxx.xxx",7220,8585,92,"Parma","Italy","IT",44.8015,10.3279,"Telecom Italia S.p.A.","Italy","IT","Liguria","42","Sestri Levante",44.279,9.417,57.6317,12,12,"Iliad Italia","1","Iliad","IT","222","50","iPhone X","12.3.1",1,"Sestri Levante GE, Italy","Sestri Levante","locality","Italy","IT","Liguria","Metropolitan City of Genoa","Sestri Levante","16039","","44.27926","9.41705",1
3319394389,145048052,"2019-07-01 00:01:35","1.38.xxx.xxx",3148,25066,27,"Ahmedabad","India","IN",23.0300,72.5800,"Vodafone India","India","IN","Gujarat","GJ","Rajkot",22.300,70.783,125.303,12,12,"Vodafone India","1","Vodafone India","IN","404","5","iPhone X","12.3.1",2,"Rajkot, Gujarat, India","Rajkot","locality","India","IN","Gujarat","Rajkot","","360007","","22.30000","70.78330",2
3319394390,161321088,"2019-07-01 00:01:35","1.129.xxx.xxx",12630,12612,28,"Sydney","Australia","AU",-33.8600,151.2111,"Digital Pacific","Australia","AU","New South Wales","NSW","Kurmond",-33.550,150.695,36.5867,12,12,"Telstra Internet","1","Telstra","AU","505","1","iPhone XS Max","12.3.1",1,"Kurmond NSW 2757, Australia","Kurmond","locality","Australia","AU","New South Wales","Hawkesbury City Council","","2757","","-33.64816","150.77994",1
3319394393,109749603,"2019-07-01 00:01:35","5.90.xxx.xxx",28568,15410,34,"Rome","Italy","IT",41.9000,12.5000,"Vodafone Italy","Italy","IT","Tuscany","52","Pieve Santo Stefano",43.714,12.031,127.731,12,12,"Vodafone Italia","1","Vodafone IT","IT","222","10","iPhone 7 Plus","12.3.1",1,"Pieve Santo Stefano, Province of Arezzo, Italy","Pieve Santo Stefano","administrative_area_level_3","Italy","IT","Tuscany","Province of Arezzo","Pieve Santo Stefano","52036","","43.71430","12.03108",1
3319394394,146382154,"2019-07-01 00:01:35","5.108.xxx.xxx",26085,10929,78,"Abha","Saudi Arabia","SA",18.2465,42.5117,"Saudi Telecom Company (STC)","Saudi Arabia","SA","Unknown","??","Tanumah",18.926,42.162,52.2881,12,12,"Mobily","1","Mobily","SA","420","3","iPhone X","12.3.1",1,"Tanomah Saudi Arabia","Tanomah","locality","Saudi Arabia","SA","Aseer Province","","","62796","","","",0
3319394399,121361357,"2019-07-01 00:01:35","94.25.xxx.xxx",23547,18496,77,"Tobolsk","Russia","RU",58.1953,68.2581,"MegaFon","Russia","RU","Kurgan Oblast","KGN","Kurgan",55.450,65.333,219.763,12,12,"Yota","1","Yota","RU","250","11","iPhone5S","12.4",2,"Kurgan, Kurgan Oblast, Russia","Kurgan","locality","Russia","RU","Kurgan Oblast","gorod Kurgan","","640007","","55.45000","65.33330",2
3319394420,145431769,"2019-07-01 00:01:37","42.153.xxx.xxx",26895,8910,26,"Petaling Jaya","Malaysia","MY",3.0833,101.6500,"webe Digital Sdn Bhd","Malaysia","MY","Selangor","10","Kampung Pekan Kechil Beranang",2.903,101.865,19.4305,12,12,"Webe Digital Sdn. Bhd.","1","Carrier","my","502","153","iPhone 6S","12.4",1,"Beranang, Selangor, Malaysia","Beranang","locality","Malaysia","MY","Selangor","Hulu Langat","Beranang","43700","","2.90773","101.86473",1
3319394422,73725039,"2019-07-01 00:01:37","49.195.xxx.xxx",1901,454,52,"Chatswood","Australia","AU",-33.8008,151.1796,"Telstra","Australia","AU","New South Wales","NSW","Sydney",-33.818,151.193,1.44721,5,5,"Optus","1","OPTUS","AU","505","2","iPhone 6S","12.3.1",1,"St Leonards NSW 2065, Australia","Saint Leonards","locality","Australia","AU","New South Wales","","","2065","","-33.82490","151.19460",1
3319394435,153708896,"2019-07-01 00:01:38","175.176.xxx.xxx",112428,40840,28,"Manila","Philippines","PH",14.5800,121.0000,"Globe Telecom","Philippines","PH","Metro Manila","00","Manila",14.575,121.001,0.309492,12,12,"Smart Broadband","1","Smart","PH","515","3","iPhone XS","12.3.1",1,"Manila, Metro Manila, Philippines","Manila","locality","Philippines","PH","Metro Manila","","","","","14.57587","121.00178",1
3319394440,167240080,"2019-07-01 00:01:38","151.0.xxx.xxx",24102,20167,91,"Ankara","Turkey","TR",39.8750,32.8333,"Vodafone TR","Turkey","TR","Ankara","06","Ankara",39.873,32.649,9.73974,12,12,"Vodafone Hungary","1","vodafone HU","HU","216","70","iPhone 8","12.3.1",1,"Ankara, Ankara, Turkey","Ankara","locality","Turkey","TR","Ankara","","","06810","","39.86267","32.64539",1
3319394444,151799024,"2019-07-01 00:01:39","172.113.xxx.xxx",47970,5052,29,"Diamond Bar, CA","United States","US",34.0017,-117.8208,"C3Network.Inc","United States","US","California","CA","San Bernardino",34.071,-117.249,33.0992,12,12,"Spectrum","1","Verizon","US","311","480","iPhone 7 Plus","12.4",1,"San Bernardino, CA, USA","San Bernardino","locality","United States","US","California","San Bernardino County","","92354","","34.07165","-117.24956",1
3319394456,39586270,"2019-07-01 00:01:40","37.163.xxx.xxx",10946,3653,106,"Perugia","Italy","IT",43.1122,12.3889,"Telecom Italia S.p.A.","Italy","IT","Unknown","??","Unknown",43.147,12.109,14.3089,12,12,"Iliad Italia","1","Iliad","IT","222","50","iPhone5S","12.3.1",2,"Italy","Italy","country","Italy","IT","","","","","","","",0
3319394461,155587721,"2019-07-01 00:01:40","5.90.xxx.xxx",61576,8978,39,"Rome","Italy","IT",41.9000,12.5000,"Uniconnect","Italy","IT","Sardinia","88","Cannigione",41.111,9.436,167.785,12,12,"Vodafone Italia","1","Vodafone IT","IT","222","10","iPhone XS","12.4",1,"Cannigione OT, Italy","Cannigione","locality","Italy","IT","Sardinia","Province of Olbia-Tempio","Arzachena","07021","","41.11114","9.43667",1
3319394471,135295695,"2019-07-01 00:01:41","95.186.xxx.xxx",43168,14627,34,"Baha","Saudi Arabia","SA",20.0217,41.4713,"Saudi Telecom Company (STC)","Saudi Arabia","SA","Makkah Province","02","Rabigh",22.799,39.034,248.06,12,12,"SaudiNet","1","STC","SA","420","1","iPhone X","12.3.1",1,"Rabigh Saudi Arabia","Rabigh","locality","Saudi Arabia","SA","Makkah Province","","","25754","","22.79961","39.03472",1
3319394472,163406555,"2019-07-01 00:01:41","110.54.xxx.xxx",20108,4316,58,"Makati","Philippines","PH",14.5500,121.0300,"RISE.ph","Philippines","PH","Metro Manila","00","Manila",14.580,120.981,3.86359,12,12,"Globe Mobile","1","Globe","PH","515","2","iPhone XR","12.3.1",1,"Manila, Metro Manila, Philippines","Manila","locality","Philippines","PH","Metro Manila","","","1000","","14.58025","120.98148",1
3319394477,170604482,"2019-07-01 00:01:42","93.36.xxx.xxx",43888,13996,47,"Milan","Italy","IT",45.4640,9.1916,"CWNET","Italy","IT","Lombardy","25","Sedrina",45.781,9.623,30.3036,12,12,"Fastweb","1","Carrier","IT","222","8","iPhone X","12.3.1",1,"24010 Sedrina BG, Italy","Sedrina","locality","Italy","IT","Lombardy","Province of Bergamo","Sedrina","24010","","45.78136","9.62344",1
3319394483,155065241,"2019-07-01 00:01:42","176.220.xxx.xxx",4063,9466,31,"Denizli","Turkey","TR",37.7789,29.0860,"Netinternet","Turkey","TR","Denizli","20","Denizli",37.747,29.115,2.72241,12,12,"Turk Telekom","1","Turk Telekom","TR","286","3","iPhone 7 Plus","12.3.1",1,"Denizli, Denizli Merkez/Denizli, Turkey","Denizli","locality","Turkey","TR","Denizli","Denizli Merkez","","20160","","37.74353","29.11744",1
